,Report Number,Report Date,Occur Date,Occur Time,Possible Date,Possible Time,Beat,Apartment Office Prefix,Apartment Number,Location,Shift Occurence,Location Type,UCR Literal,IBR Code,Neighborhood,NPU,Latitude,Longitude
0,90010930,2009-01-01,2009-01-01,1145,2009-01-01,1148.0,411.0,,,2841 GREENBRIAR PKWY,Day Watch,8,LARCENY-NON VEHICLE,2303,Greenbriar,R,33.68845,-84.49328
1,90011083,2009-01-01,2009-01-01,1330,2009-01-01,1330.0,511.0,,,12 BROAD ST SW,Day Watch,9,LARCENY-NON VEHICLE,2303,Downtown,M,33.7532,-84.39201
2,90011208,2009-01-01,2009-01-01,1500,2009-01-01,1520.0,407.0,,,3500 MARTIN L KING JR DR SW,Unknown,8,LARCENY-NON VEHICLE,2303,Adamsville,H,33.75735,-84.50282
3,90011218,2009-01-01,2009-01-01,1450,2009-01-01,1510.0,210.0,,,3393 PEACHTREE RD NE,Evening Watch,8,LARCENY-NON VEHICLE,2303,Lenox,B,33.84676,-84.36212
4,90011289,2009-01-01,2009-01-01,1600,2009-01-01,1700.0,411.0,,,2841 GREENBRIAR PKWY SW,Unknown,8,LARCENY-NON VEHICLE,2303,Greenbriar,R,33.68677,-84.49773
5,90011327,2009-01-01,2009-01-01,1645,2009-01-01,1645.0,609.0,,,1217 CAROLINE ST NE,Evening Watch,24,LARCENY-NON VEHICLE,2303,Edgewood,O,33.75786,-84.34874999999998
6,90011450,2009-01-01,2009-01-01,1740,2009-01-01,1815.0,408.0,,,2685 METROPOLITAN PARKWAY,Evening Watch,12,LARCENY-NON VEHICLE,2303,Venetian Hills,S,33.70827,-84.45385
7,90011608,2009-01-01,2009-01-01,1627,2009-01-01,2110.0,210.0,,,3393 PEACHTREE RD,Evening Watch,8,LARCENY-NON VEHICLE,2303,Lenox,B,33.84676,-84.36212
8,90010721,2009-01-01,2009-01-01,0815,2009-01-01,820.0,411.0,,,3030 HEADLAND DR SW,Day Watch,12,LARCENY-NON VEHICLE,2303,Greenbriar,R,33.68841,-84.48742
9,90010108,2009-01-01,2008-12-31,2000,2009-01-01,100.0,507.0,,,360 MARIETTA ST NW,Morning Watch,18,LARCENY-FROM VEHICLE,2305,Downtown,M,33.76269,-84.39702
10,90010247,2009-01-01,2008-12-31,2300,2009-01-01,135.0,609.0,,,195 ARIZONA AVE NE,Morning Watch,13,LARCENY-FROM VEHICLE,2305,Edgewood,O,33.75902,-84.33119999999998
11,90010267,2009-01-01,2008-12-31,2230,2009-01-01,130.0,610.0,,,58 SAUNDERS ST NE,Morning Watch,20,LARCENY-FROM VEHICLE,2305,Kirkwood,O,33.75441,-84.32465
12,90010730,2009-01-01,2009-01-01,0100,2009-01-01,900.0,403.0,,,1457 VENETIAN DR SW,Day Watch,20,LARCENY-FROM VEHICLE,2305,Venetian Hills,S,33.71464,-84.43612
13,90010745,2009-01-01,2008-12-31,2030,2009-01-01,800.0,208.0,,313,3558 PIEDMONT RD NE,Day Watch,18,LARCENY-FROM VEHICLE,2305,Buckhead Forest,B,33.85115,-84.37944
14,90010774,2009-01-01,2009-01-01,0130,2009-01-01,923.0,608.0,,,456 CANDLER ST NE,Day Watch,13,LARCENY-FROM VEHICLE,2305,Candler Park,N,33.76675,-84.34595
15,90010805,2009-01-01,2009-01-01,0900,2009-01-01,945.0,604.0,,1305,626 DEKALB AVE SE,Day Watch,18,LARCENY-FROM VEHICLE,2305,Old Fourth Ward,M,33.75283,-84.36687
16,90010917,2009-01-01,2008-12-31,1915,2009-01-01,1137.0,503.0,,,422 9TH ST NE,Day Watch,13,LARCENY-FROM VEHICLE,2305,Midtown,E,33.7808,-84.37334
17,90011020,2009-01-01,2008-12-31,1900,2009-01-01,1230.0,509.0,,,590 W PEACHTREE ST NW,Day Watch,18,LARCENY-FROM VEHICLE,2305,Downtown,M,33.77023,-84.38814999999998
18,90011049,2009-01-01,2008-12-31,1700,2008-12-31,2200.0,502.0,,,188 14TH STREET,Day Watch,18,LARCENY-FROM VEHICLE,2305,Midtown,E,33.78663,-84.38138999999998
19,90011054,2009-01-01,2008-12-29,1700,2008-12-30,700.0,614.0,,,897 MONROE CIR NE,Day Watch,13,LARCENY-FROM VEHICLE,2305,Midtown,E,33.77917,-84.36851
20,90011104,2009-01-01,2009-01-01,0100,2009-01-01,1200.0,407.0,,,4076 BREWER DR SW,Evening Watch,,LARCENY-FROM VEHICLE,2305,Wilson Mill Meadows,H,33.75174,-84.52101
21,90011207,2009-01-01,2008-12-27,0100,2008-12-28,1200.0,113.0,,1234,162O HOLLY WOOD DR NW,Evening Watch,18,LARCENY-FROM VEHICLE,2305,Scotts Crossing,G,33.79988,-84.47023
22,90011267,2009-01-01,2009-01-01,1400,2009-01-01,1545.0,504.0,,,IVAN ALLEN JR BLVD NW / VENABLE ST NW,Evening Watch,13,LARCENY-FROM VEHICLE,2305,Downtown,M,33.76464,-84.39534
23,90011384,2009-01-01,2009-01-01,1630,2009-01-01,1630.0,202.0,,,135 W WIEUCA RD NW @CHASTAIN CITY PARK,Evening Watch,13,LARCENY-FROM VEHICLE,2305,Chastain Park,A,33.87589,-84.39202
24,90011533,2009-01-01,2009-01-01,1938,2009-01-01,1938.0,407.0,,,501 WILSON MILLRD SW,Evening Watch,13,LARCENY-FROM VEHICLE,2305,Wilson Mill Meadows,H,33.74866,-84.51757999999998
25,90011592,2009-01-01,2009-01-01,1200,2009-01-01,2000.0,505.0,,,6TH ST NE / W PEACHTREE ST NE,Evening Watch,13,LARCENY-FROM VEHICLE,2305,Midtown,E,33.77754,-84.38729999999998
26,90011602,2009-01-01,2009-01-01,2000,2009-01-01,2025.0,411.0,,,2841 GREENBRIAR PKWY SW,Evening Watch,18,LARCENY-FROM VEHICLE,2305,Greenbriar,R,33.68677,-84.49773
27,90011792,2009-01-01,2009-01-01,2200,2009-01-01,2240.0,112.0,,,3114 COLLIER DR NW,Morning Watch,13,LARCENY-FROM VEHICLE,2305,Collier Heights,I,33.76516,-84.49082
28,90011702,2009-01-01,2009-01-01,2210,2009-01-01,2220.0,509.0,,,31 BAKER ST NE,Evening Watch,18,LARCENY-NON VEHICLE,2307,Downtown,M,33.76214,-84.38625
29,90011117,2009-01-01,2008-12-31,2100,2009-01-01,1400.0,307.0,,87,624 AMAL DR SW,Evening Watch,26,LARCENY-FROM VEHICLE,2304,Amal Heights,Y,33.70933,-84.39722
30,90011134,2009-01-01,2008-12-31,1800,2009-01-01,1400.0,602.0,,,819 ASHLAND AVE NE,Day Watch,13,LARCENY-FROM VEHICLE,2304,Inman Park,N,33.75753,-84.36092999999998
31,90010842,2009-01-01,2008-12-22,1500,2009-01-01,1030.0,604.0,,,375 RALPH MCGILL BLVD NE,Day Watch,26,LARCENY-NON VEHICLE,2308,Old Fourth Ward,M,33.76368,-84.37587
32,90011374,2009-01-01,2009-01-01,1700,2009-01-01,1718.0,301.0,,,DILL AVE SW / HARTFORD AVE SW,Evening Watch,13,ROBBERY-PEDESTRIAN,1205,Capitol View,X,33.7183,-84.4169
33,90010996,2009-01-01,2009-01-01,1230,2009-01-01,1240.0,508.0,,,100 PEACHTREE ST NW,Day Watch,13,ROBBERY-PEDESTRIAN,1299G,Downtown,M,33.75685,-84.38859999999998
34,90011535,2009-01-01,2009-01-01,1900,2009-01-01,1923.0,402.0,APT,G-6,1245 DONNELLY AVE SW,Evening Watch,26,ROBBERY-RESIDENCE,1208K,West End,T,33.73388,-84.42812
35,90010638,2009-01-01,2009-01-01,0200,2009-01-01,600.0,402.0,,,966 DIMMOCK ST SW,Day Watch,20,LARCENY-NON VEHICLE,2399,Oakland City,S,33.72667,-84.41946
36,90010946,2009-01-01,2008-12-01,1200,2008-12-31,1400.0,407.0,,,4082 CORNELL BLVD SW,Day Watch,20,LARCENY-NON VEHICLE,2399,Baker Hills,H,33.75963,-84.52118
37,90010965,2009-01-01,2008-12-31,2200,2009-01-01,100.0,511.0,,,65 ALABAMA ST SW @UNDERGROUND ATLANTA,Day Watch,99,LARCENY-NON VEHICLE,2399,Downtown,M,33.75258,-84.38992
38,90011019,2009-01-01,2008-12-31,2100,2008-12-31,2200.0,204.0,,,1715 HOWELL MILL RD NW,Day Watch,12,LARCENY-NON VEHICLE,2399,Berkeley Park,D,33.80089,-84.4157
39,90011135,2009-01-01,2009-01-01,1430,2009-01-01,1430.0,202.0,,,3658 ROSWELL RD NW,Evening Watch,24,LARCENY-NON VEHICLE,2399,Tuxedo Park,A,33.85475,-84.38297
40,90011185,2009-01-01,2008-12-31,0030,2009-01-01,115.0,503.0,,,1150 PEACHTREE ST,Evening Watch,3,LARCENY-NON VEHICLE,2399,Midtown,E,33.78595,-84.3837
41,90011266,2009-01-01,2009-01-01,1600,2009-01-01,1600.0,205.0,,,2197 HOWELL MILL RD NW,Evening Watch,20,LARCENY-NON VEHICLE,2399,Springlake,C,33.81538,-84.4149
42,90010133,2009-01-01,2008-12-31,2200,2008-12-31,2230.0,114.0,,,547 FAIRBURN RD NW,Day Watch,4,AUTO THEFT,2404,Fairburn Heights,H,33.7709,-84.50049
43,90010153,2009-01-01,2008-12-31,2200,2009-01-01,2230.0,403.0,,,1137 AVON AVE SW,Evening Watch,13,AUTO THEFT,2404,Oakland City,S,33.72235,-84.42489999999998
44,90010359,2009-01-01,2008-12-31,2230,2009-01-01,230.0,512.0,,,174 PEACHTREE ST,Morning Watch,18,AUTO THEFT,2404,Downtown,M,33.74954,-84.39382999999998
45,90010365,2009-01-01,2009-01-01,0230,2009-01-01,235.0,111.0,,,3458 DELMAR LN NW,Morning Watch,18,AUTO THEFT,2404,Adamsville,H,33.75686,-84.50064
46,90010417,2009-01-01,2008-12-31,2000,2009-01-01,300.0,304.0,,,2323 DEFOOR HILLS RD,Day Watch,3,AUTO THEFT,2404,Summerhill,V,33.74485,-84.39005
47,90010422,2009-01-01,2008-12-31,2130,2009-01-01,100.0,508.0,,,MARIETTA ST NW / SPRING ST NW,Morning Watch,18,AUTO THEFT,2404,Downtown,M,33.75699,-84.39266999999998
48,90010545,2009-01-01,2009-01-01,0015,2009-01-01,400.0,305.0,,,93 BISBEE AVE SE,Morning Watch,13,AUTO THEFT,2404A,South Atlanta,Y,33.71636,-84.38513
49,90010704,2009-01-01,2008-12-31,2100,2009-01-01,745.0,406.0,,,3444 LYNFIELD DR SW,Day Watch,20,AUTO THEFT,2404,Green Forest Acres,I,33.73224,-84.50118999999998
50,90010769,2009-01-01,2009-01-01,0500,2009-01-01,800.0,305.0,,107,201 MOURY AVE SW,Day Watch,26,AUTO THEFT,2404,The Villages at Carver,Y,33.71691,-84.39275999999998
51,90010773,2009-01-01,2009-01-01,0910,2009-01-01,925.0,612.0,,,720 CLIFTON RD SE,Day Watch,20,AUTO THEFT,2404,East Atlanta,W,33.73445,-84.32966999999998
52,90010814,2009-01-01,2009-01-01,0600,2009-01-01,1009.0,310.0,,1403,585 MCWILLIAMS RD SE,Day Watch,26,AUTO THEFT,2404A,Browns Mill Park,Z,33.68869,-84.36880999999998
53,90010881,2009-01-01,2008-12-31,2230,2009-01-01,1100.0,306.0,,2102,1150 ASTOR AVE SW,Day Watch,26,AUTO THEFT,2404A,Sylvan Hills,X,33.70137,-84.42677999999998
54,90010935,2009-01-01,2009-01-01,0200,2009-01-01,220.0,501.0,,,HOWELL MILL & 10TH STREET NW,Day Watch,13,AUTO THEFT,2404,Home Park,E,33.78157,-84.41115
55,90010939,2009-01-01,2009-01-01,0200,2009-01-01,1154.0,411.0,,R-2,3000 STONE HOGAN CONN SW,Day Watch,18,AUTO THEFT,2404,Greenbriar,R,33.67424,-84.49697
56,90010949,2009-01-01,2008-12-31,2200,2009-01-01,1300.0,108.0,,A-4,150 FAIRFIELD PL NW,Day Watch,26,AUTO THEFT,2404,Dixie Hills,J,33.7581,-84.46325
57,90011324,2009-01-01,2009-01-01,1000,2009-01-01,1640.0,510.0,APT,702,210 AUBURN AVE NE,Evening Watch,18,AUTO THEFT,2404,Downtown,M,33.75563,-84.38092
58,90011621,2009-01-01,2009-01-01,2030,2009-01-01,2040.0,608.0,APT,B,262 CONNECTICUT AVE NE,Evening Watch,13,AUTO THEFT,2404,Lake Claire,N,33.76137,-84.32922999999998
59,90011683,2009-01-01,2009-01-01,2100,2009-01-01,2300.0,609.0,,,1275 CAROLINE STREET,Evening Watch,18,AUTO THEFT,2404A,Edgewood,O,33.75539,-84.34202999999998
60,90011711,2009-01-01,2009-01-01,2200,2009-01-01,2200.0,301.0,,,791 ERIN AVE SW,Morning Watch,20,AUTO THEFT,2404,Capitol View,X,33.71945,-84.41372
61,90011728,2009-01-01,2009-01-01,1500,2009-01-01,2100.0,305.0,,2002,177 MOURY AVE SW,Evening Watch,18,AUTO THEFT,2404,The Villages at Carver,Y,33.71348,-84.39051999999998
62,90011768,2009-01-01,2009-01-01,2115,2009-01-01,2145.0,114.0,,,521 FAIRLANE CIR NW,Evening Watch,18,AUTO THEFT,2404,Fairburn Heights,H,33.76837,-84.50082999999998
63,90010831,2009-01-01,2009-01-01,0400,2009-01-01,1000.0,304.0,,3,16 VANIRA AVE SE,Day Watch,26,AUTO THEFT,2424A,Peoplestown,V,33.72951,-84.38735
64,90010962,2009-01-01,2008-12-30,1700,2008-12-31,1000.0,304.0,,,185 SOUTH AVE SE,Evening Watch,20,AUTO THEFT,2424,Summerhill,V,33.73222,-84.38173
65,90011315,2009-01-01,2008-12-31,2200,2009-01-01,1530.0,404.0,,,597 WILLARD AVE SW,Day Watch,20,AUTO THEFT,2424,Westview,T,33.7391,-84.43743
66,90011439,2009-01-01,2009-01-01,0001,2009-01-01,1200.0,304.0,,,1575 WESTWOOD AVE SW,Day Watch,13,AUTO THEFT,2424,Peoplestown,V,33.72828,-84.38787
67,90010656,2009-01-01,2009-01-01,0640,2009-01-01,725.0,509.0,,,221 PEACHTREE CENTER AVE NE,Day Watch,18,AUTO THEFT,2434,Downtown,M,33.76045,-84.38556
68,90011478,2009-01-01,2008-12-31,2030,2009-01-01,1830.0,103.0,,,1271 MARIETTA BLVD NW,Evening Watch,3,ROBBERY-PEDESTRIAN,1206,Blandtown,D,33.78949,-84.42819
69,90010314,2009-01-01,2008-12-31,2200,2009-01-01,145.0,403.0,,,14 BELMONTE CT SW,Morning Watch,18,AUTO THEFT,2424,Cascade Avenue/Road,S,33.72544,-84.44497
70,90010350,2009-01-01,2009-01-01,0220,2009-01-01,223.0,310.0,,2601,585 MCWILLIAMS RD SE,Morning Watch,18,AUTO THEFT,2424,Browns Mill Park,Z,33.68869,-84.36880999999998
71,90010358,2009-01-01,2009-01-01,0030,2009-01-01,200.0,108.0,,,2174 PENELOPE ST NW,Unknown,18,AUTO THEFT,2424,Penelope Neighbors,J,33.75449,-84.45717999999998
72,90010628,2009-01-01,2009-01-01,0500,2009-01-01,600.0,302.0,,3313,765 MCDANIEL ST SW,Day Watch,18,AUTO THEFT,2424,Pittsburgh,V,33.73396,-84.40177
73,90010722,2009-01-01,2009-01-01,0700,2009-01-01,705.0,408.0,,,1345 WESTRIDGE RD SW,Day Watch,20,AUTO THEFT,2424,Venetian Hills,S,33.71851,-84.44718
74,90010741,2009-01-01,2009-01-01,0849,2009-01-01,850.0,410.0,,,1812 FORT VALLEY DR SW,Day Watch,20,AUTO THEFT,2424,Pomona Park,R,33.70553,-84.45010999999998
75,83661583,2009-01-01,2008-12-31,1900,2008-12-31,1915.0,603.0,,,356 BOULEVARD,Evening Watch,23,ROBBERY-PEDESTRIAN,1299S,Old Fourth Ward,M,33.76421,-84.37206
76,90010159,2009-01-01,2009-01-01,0057,2009-01-01,105.0,206.0,,,BUCKEAD AVE/GRANDVIEW AVE,Morning Watch,99,ROBBERY-PEDESTRIAN,1204,Buckhead Village,B,33.83752,-84.37573999999998
77,90010726,2009-01-01,2009-01-01,0800,2009-01-01,825.0,510.0,,,160 JOHN WESLEY DOBBS AVE,Day Watch,23,ROBBERY-PEDESTRIAN,1204,Downtown,M,33.75734,-84.38256
78,90010982,2009-01-01,2009-01-01,1200,2009-01-01,1230.0,406.0,,,3202 MARTIN L KING DR,Day Watch,10,ROBBERY-PEDESTRIAN,1204,,I,33.75081,-84.49406
79,90011484,2009-01-01,2009-01-01,1830,2009-01-01,1840.0,512.0,,,90 BROAD ST SW,Evening Watch,13,ROBBERY-PEDESTRIAN,1204,Downtown,M,33.75204,-84.39282
80,90011534,2009-01-01,2008-12-31,1900,2008-12-31,1900.0,108.0,,,2181 MARTIN L KING JR DR NW,Evening Watch,13,ROBBERY-PEDESTRIAN,1204,Florida Heights,I,33.7526,-84.46294
81,90010400,2009-01-01,2009-01-01,0100,2009-01-01,130.0,511.0,,,54 PEACHTREE ST SW,Morning Watch,13,AGG ASSAULT,1314,Downtown,M,33.75286,-84.3912
82,90010689,2009-01-01,2009-01-01,0715,2009-01-01,730.0,107.0,,15,345 LANIER ST NW,Day Watch,26,AGG ASSAULT,1314,Grove Park,J,33.76449,-84.4392
83,90011537,2009-01-01,2009-01-01,1926,2009-01-01,1927.0,303.0,,,307 RICHARDSON ST,Evening Watch,7,AGG ASSAULT,1314,Mechanicsville,V,33.74065,-84.39702
84,90010536,2009-01-01,2009-01-01,0410,2009-01-01,411.0,404.0,,,17OO N OLYMPIAN WAY SW,Morning Watch,13,AGG ASSAULT,1315K,Westview,T,33.73613,-84.44460999999998
85,90011359,2009-01-01,2009-01-01,1500,2009-01-01,1515.0,310.0,,,2305 MACON DR SW,Evening Watch,20,AGG ASSAULT,1315K,Browns Mill Park,Z,33.69155,-84.39163
86,83662137,2009-01-01,2008-12-31,2315,2008-12-31,2339.0,104.0,,4,625 JOSEPH E LOWERY,Morning Watch,26,AGG ASSAULT,1315,Ashview Heights,T,33.74865,-84.41763
87,90011341,2009-01-01,2009-01-01,1700,2009-01-01,1701.0,114.0,,,BANKHEAD HWY @ MAYNARD CT,Day Watch,13,AGG ASSAULT,1315,Atlanta Industrial Park,H,33.79361,-84.50024
88,90011684,2009-01-01,2009-01-01,2145,2009-01-01,2149.0,307.0,,,2043 LAKEWOOD TRL SE,Evening Watch,20,AGG ASSAULT,1315,Lakewood,Z,33.69816,-84.37791
89,90010373,2009-01-01,2009-01-01,0200,2009-01-01,230.0,508.0,,316,115 W PEACHTREE PL NW,Morning Watch,13,AGG ASSAULT,1399,Downtown,M,33.7641,-84.39109999999998
90,90011106,2009-01-01,2009-01-01,1408,2009-01-01,1500.0,308.0,,,2021 PHILLIPS DR SE,Day Watch,20,AGG ASSAULT,1399,Thomasville Heights,Z,33.69866,-84.35402999999998
91,83651892,2009-01-01,2008-12-23,1200,2008-12-30,1900.0,610.0,,,2163 RIDGEDALE RD,Evening Watch,20,BURGLARY-RESIDENCE,2202,Kirkwood,O,33.75298,-84.3168
92,90010061,2009-01-01,2009-01-01,0010,2009-01-01,20.0,312.0,,,501 TUFTON TRL SE,Morning Watch,20,BURGLARY-RESIDENCE,2202,Glenrose Heights,Z,33.66477,-84.38429999999998
93,90010143,2009-01-01,2008-12-31,1600,2009-01-01,45.0,607.0,,,695 VERNON AVE SE,Morning Watch,20,BURGLARY-RESIDENCE,2202,Ormewood Park,W,33.73499,-84.35801999999998
94,90010269,2009-01-01,2009-01-01,0035,2009-01-01,45.0,403.0,,,1145 PRINCESS AVE SW,Morning Watch,20,BURGLARY-RESIDENCE,2202,Oakland City,S,33.72374,-84.42548999999998
95,90010307,2009-01-01,2008-12-31,2245,2009-01-01,145.0,404.0,,B102,1530 RALPH D ABERNATHY BLVD SW,Morning Watch,26,BURGLARY-RESIDENCE,2202,Westview,T,33.74307,-84.43766999999998
96,90010369,2009-01-01,2008-12-31,2200,2009-01-01,200.0,210.0,,A302,3200 LENOX RD NE,Morning Watch,26,BURGLARY-RESIDENCE,2202,Pine Hills,B,33.84221,-84.35822
97,90010568,2009-01-01,2008-12-31,2300,2009-01-01,430.0,410.0,,O-201,1999 BENT CREEK WAY SW,Morning Watch,26,BURGLARY-RESIDENCE,2202,Campbellton Road,R,33.70087,-84.46573999999998
98,90010666,2009-01-01,2009-01-01,0654,2009-01-01,654.0,308.0,,260,1090 MCDONOUGH BLVD SE,Day Watch,26,BURGLARY-RESIDENCE,2202,Thomasville Heights,Z,33.70449,-84.35192999999998
99,90010889,2009-01-01,2008-12-31,2300,2009-01-01,300.0,612.0,,,1583 MAY AVE SE,Morning Watch,20,BURGLARY-RESIDENCE,2202,East Atlanta,W,33.73875,-84.33584999999998
100,90010952,2009-01-01,2009-01-01,0300,2009-01-01,500.0,411.0,APT,1402,3030 CONTINENTAL COLONY PKWY SW,Morning Watch,26,BURGLARY-RESIDENCE,2202,Greenbriar,R,33.68066,-84.49370999999998
101,90011015,2009-01-01,2008-12-24,2000,2009-01-01,1200.0,302.0,,,1145 IRA ST SW,Day Watch,20,BURGLARY-RESIDENCE,2202,Pittsburgh,V,33.72366,-84.40022999999998
102,90011161,2009-01-01,2008-12-31,2330,2009-01-01,100.0,601.0,,,1024 HIGHLAND VW NE,Evening Watch,20,BURGLARY-RESIDENCE,2202,Virginia Highland,F,33.77941,-84.35397
103,90011406,2009-01-01,2008-12-27,1300,2009-01-01,1745.0,212.0,,6206,2000 MONROE PL NE,Evening Watch,26,BURGLARY-RESIDENCE,2202,Piedmont Heights,F,33.8103,-84.37025
104,90011567,2009-01-01,2009-01-01,1940,2009-01-01,1950.0,402.0,,,1287 BEECHER ST SW,Evening Watch,20,BURGLARY-RESIDENCE,2202,West End,T,33.73347,-84.42968999999998
105,90011715,2009-01-01,2008-12-24,0930,2009-01-01,2230.0,309.0,,,824 BROOKDALE DR SW,Morning Watch,20,BURGLARY-RESIDENCE,2202,Perkerson,X,33.68623,-84.41630999999998
106,90010680,2009-01-01,2009-01-01,0711,2009-01-01,711.0,211.0,,,2359 PEACHTREE RD NE,Day Watch,24,BURGLARY-NONRES,2203,Peachtree Hills,B,33.81894,-84.38857
107,90010681,2009-01-01,2008-12-31,2030,2009-01-01,600.0,105.0,,,1300 JOSEPH E BOONE BLVD NW,Day Watch,99,BURGLARY-NONRES,2203,Hunter Hills,K,33.76204,-84.43066
108,90010801,2009-01-01,2009-01-01,0945,2009-01-01,945.0,106.0,,,1020 DONALD LEE HOLLOWELL PKWY NW,Day Watch,24,BURGLARY-NONRES,2203,Bankhead,K,33.77292,-84.42077999999998
109,90010963,2009-01-01,2009-01-01,0400,2009-01-01,1000.0,506.0,,,595 NORTH AVE NW,Day Watch,3,BURGLARY-NONRES,2203,English Avenue,L,33.77013,-84.40694999999998
110,90010975,2009-01-01,2009-01-01,1200,2009-01-01,1230.0,407.0,,,286 WILSON MILL RD SW,Evening Watch,11,BURGLARY-NONRES,2203,Wisteria Gardens,H,33.7547,-84.51365
111,83662023,2009-01-01,2008-12-31,1800,2008-12-31,2130.0,506.0,,,800 W MARIETTA ST,Evening Watch,26,BURGLARY-RESIDENCE,2204,English Avenue,L,33.78022,-84.41513999999998
112,90011256,2009-01-01,2009-01-01,0001,2009-01-01,300.0,112.0,,E,211 HARWELL PL NW,Evening Watch,26,BURGLARY-RESIDENCE,2204,Collier Heights,I,33.78081,-84.49241999999998
113,90010406,2009-01-01,2008-12-31,0700,2009-01-01,230.0,306.0,,,1083 ASTOR AVE SW,Morning Watch,20,BURGLARY-RESIDENCE,2202A,Sylvan Hills,X,33.70171,-84.42404
114,90020981,2009-01-02,2008-01-02,0000,2008-01-02,1500.0,512.0,,,200 MEMORIAL DR SW,Evening Watch,24,BURGLARY-NONRES,2205,Downtown,M,33.74656,-84.39403
115,90021005,2009-01-02,2009-01-02,1100,2009-01-02,1550.0,111.0,,R,2961 TRIBBLE LN NW,Evening Watch,20,BURGLARY-RESIDENCE,2204,,I,33.75941,-84.48366
116,90021275,2009-01-02,2008-12-31,1700,2009-01-02,1730.0,301.0,,,1330 ALLENE AVE SW,Evening Watch,20,BURGLARY-RESIDENCE,2204,Capitol View,X,33.71856,-84.41261
117,90021395,2009-01-02,2008-12-20,1000,2009-01-02,1900.0,613.0,,,851 WILDWOOD RD NE,Evening Watch,20,BURGLARY-RESIDENCE,2204,Morningside/Lenox Park,F,33.80304,-84.35996
118,90021591,2009-01-02,2009-01-02,2110,2009-01-02,2130.0,208.0,,86,86 ROSWELL CT NE,Unknown,26,BURGLARY-RESIDENCE,2204,Buckhead Forest,B,33.84883,-84.38173999999998
119,90020104,2009-01-02,2009-01-02,0149,2009-01-02,150.0,401.0,,,994 RALPH D ABERNATHY BLVD SW,Morning Watch,99,BURGLARY-NONRES,2203,West End,T,33.73787,-84.42036
120,90020259,2009-01-02,2009-01-02,0549,2009-01-02,549.0,210.0,,,3393 PEACHTREE RD NE,Morning Watch,8,BURGLARY-NONRES,2203,Lenox,B,33.84676,-84.36212
121,90020296,2009-01-02,2009-01-02,0005,2009-01-02,5.0,306.0,,,1150 ASTOR AVE SW,Day Watch,26,BURGLARY-NONRES,2203,Sylvan Hills,X,33.70137,-84.42677999999998
122,90020359,2009-01-02,2009-01-02,0130,2009-01-02,800.0,506.0,,,775 JOSEPH E BOONE BLVD NW,Day Watch,17,BURGLARY-NONRES,2203,English Avenue,L,33.76369,-84.41281999999998
123,90020538,2009-01-02,2008-12-31,1600,2009-01-02,900.0,501.0,,C,691 IMAGE AVE NW,Day Watch,29,BURGLARY-NONRES,2203,Home Park,E,33.7812,-84.40994999999998
124,90020925,2009-01-02,2008-12-26,1200,2009-01-02,1200.0,108.0,,,172 DAHLIA AVE NW,Evening Watch,20,BURGLARY-NONRES,2203,Dixie Hills,J,33.75896,-84.4624
125,90020019,2009-01-02,2009-01-01,1730,2009-01-01,2330.0,605.0,,,964 HILL ST SE,Morning Watch,20,BURGLARY-RESIDENCE,2202,Grant Park,W,33.72814,-84.37829
126,90020126,2009-01-02,2009-01-01,1700,2009-01-02,150.0,302.0,,3,1186 IRA ST SW,Morning Watch,26,BURGLARY-RESIDENCE,2202,Pittsburgh,V,33.72267,-84.39994
127,90020277,2009-01-02,2008-12-31,2300,2009-01-02,600.0,609.0,,,201 WHITEFOORD AVE SE,Day Watch,20,BURGLARY-RESIDENCE,2202,Edgewood,O,33.74782,-84.34249
128,90020280,2009-01-02,2009-01-01,1200,2009-01-02,630.0,106.0,,,1207 NILES AVE NW,Day Watch,20,BURGLARY-RESIDENCE,2202,Knight Park/Howell Station,K,33.78283,-84.42673999999998
129,90020354,2009-01-02,2009-01-01,2200,2009-01-02,800.0,609.0,,D,100 MORELAND AVE SE,Day Watch,20,BURGLARY-RESIDENCE,2202,Edgewood,O,33.75069,-84.34912
130,90020372,2009-01-02,2009-01-02,0815,2009-01-02,841.0,612.0,,,639 CLIFTON RD SE,Day Watch,20,BURGLARY-RESIDENCE,2202,East Atlanta,W,33.73672,-84.33021999999998
131,90020456,2009-01-02,2009-01-02,0945,2009-01-02,952.0,304.0,,,939 HILL ST SE,Day Watch,20,BURGLARY-RESIDENCE,2202,Peoplestown,V,33.72884,-84.37891999999998
132,90020500,2009-01-02,2009-01-01,1800,2009-01-02,600.0,312.0,,,3065 BROWNS MILL RD SE,Day Watch,,BURGLARY-RESIDENCE,2202,Glenrose Heights,Z,33.67107,-84.3824
133,90020521,2009-01-02,2008-12-26,1400,2009-01-02,1000.0,108.0,,,103 FAIRFIELD PL NW,Day Watch,20,BURGLARY-RESIDENCE,2202,Dixie Hills,J,33.75577,-84.46294
134,90020616,2009-01-02,2008-12-30,1700,2008-12-31,900.0,308.0,,398,1000 NEW TOWN CIR SE,Day Watch,26,BURGLARY-RESIDENCE,2202,Thomasville Heights,Z,33.70823,-84.35912
135,90020758,2009-01-02,2009-01-02,1220,2009-01-02,1230.0,201.0,,,1135 PEACHTREE BATTLE AVE NW,Day Watch,20,BURGLARY-RESIDENCE,2202,Wesley Battle,C,33.82631,-84.42499999999998
136,90020764,2009-01-02,2009-01-02,0830,2009-01-02,1330.0,404.0,,,1575 ROGERS AVE,Day Watch,20,BURGLARY-RESIDENCE,2202,Westview,T,33.73751,-84.43922
137,90020796,2009-01-02,2008-12-01,1200,2009-01-02,1400.0,614.0,,,516 PONCE DE LEON AVE NE,Day Watch,5,BURGLARY-RESIDENCE,2202,Midtown,E,33.77435,-84.36995
138,90020958,2009-01-02,2009-01-02,1527,2009-01-02,1527.0,612.0,,,724 BROWNWOOD AVE SE,Evening Watch,20,BURGLARY-RESIDENCE,2202,East Atlanta,W,33.73439,-84.34780999999998
139,90020960,2009-01-02,2009-01-02,1030,2009-01-02,1430.0,103.0,,,1810 QUEEN ST NW,Evening Watch,20,BURGLARY-RESIDENCE,2202,Bolton,D,33.81641,-84.44718
140,90020980,2009-01-02,2009-01-02,0730,2009-01-02,1515.0,406.0,,,2300 HIGHVIEW RD SW,Evening Watch,20,BURGLARY-RESIDENCE,2202,Beecher Hills,I,33.72927,-84.46333
141,90021117,2009-01-02,2008-12-20,1000,2009-01-02,1642.0,114.0,,,452 CAMROSE WAY,Evening Watch,20,BURGLARY-RESIDENCE,2202,Fairburn Heights,H,33.76757,-84.50623
142,90021164,2009-01-02,2009-01-01,2100,2009-01-02,1701.0,110.0,,B-14,1220 GUN CLUB RD NW,Evening Watch,26,BURGLARY-RESIDENCE,2202,Almond Park,G,33.78752,-84.45789
143,90021312,2009-01-02,2009-01-02,0800,2009-01-02,1815.0,110.0,,,1633 ABNER TER NW,Evening Watch,20,BURGLARY-RESIDENCE,2202,Carver Hills,G,33.80017,-84.46371
144,90021442,2009-01-02,2008-12-18,0700,2009-01-02,1930.0,605.0,,,744 BERNE ST SE,Evening Watch,20,BURGLARY-RESIDENCE,2202,Grant Park,W,33.7368,-84.36302
145,90021487,2009-01-02,2009-01-02,1200,2009-01-02,1900.0,311.0,,4G,532 CLEVELEAND AVE,Evening Watch,26,BURGLARY-RESIDENCE,2202,Browns Mill Park,Z,33.68111,-84.39373
146,90021504,2009-01-02,2008-12-31,0830,2009-01-02,2000.0,605.0,,,900 MARION AVE SE,Evening Watch,20,BURGLARY-RESIDENCE,2202,Grant Park,W,33.7299,-84.36561
147,90021509,2009-01-02,2009-01-02,2010,2009-01-02,2030.0,611.0,,,378 ASHBURTON AVE SE,Evening Watch,20,BURGLARY-RESIDENCE,2202,East Lake,O,33.74223,-84.29309999999998
148,90021534,2009-01-02,2009-01-02,1815,2009-01-02,2000.0,410.0,,P-5,1991 DELOWE DR SW,Morning Watch,26,BURGLARY-RESIDENCE,2202,Campbellton Road,R,33.70103,-84.45746
149,90021540,2009-01-02,2009-01-02,2020,2009-01-02,2040.0,611.0,,,446 ASHBURTON AVE SE,Evening Watch,20,BURGLARY-RESIDENCE,2202,East Lake,O,33.74036,-84.29314999999998
150,90021577,2009-01-02,2008-12-18,0500,2009-01-02,2045.0,104.0,,215,965 CUNNINGHAM PL SW,Evening Watch,26,BURGLARY-RESIDENCE,2202,Harris Chiles,T,33.74333,-84.41964
151,90021589,2009-01-02,2009-01-02,1830,2009-01-02,2100.0,605.0,,,642 KILLIAN ST SE,Evening Watch,20,BURGLARY-RESIDENCE,2202,Grant Park,W,33.73781,-84.36654
152,90020012,2009-01-02,2009-01-02,0001,2009-01-02,10.0,506.0,,,JAMES P BRAWLEY DR NW / JETT ST NW,Morning Watch,13,AGG ASSAULT,1399,English Avenue,L,33.76733,-84.41258999999998
153,90021632,2009-01-02,2009-01-02,2130,2009-01-02,2130.0,404.0,,,1921 WESTWOOD AVE SW,Evening Watch,20,BURGLARY-RESIDENCE,2202,Westwood Terrace,I,33.73907,-84.45048
154,90021708,2009-01-02,2009-01-02,1600,2009-01-02,2230.0,401.0,,,1247 GREENWICH ST SW,Evening Watch,20,BURGLARY-RESIDENCE,2202,West End,T,33.74406,-84.42848999999998
155,90021820,2009-01-02,2009-01-02,2130,2009-01-02,2230.0,414.0,,,3290 WELLINGTON WALK SW,Morning Watch,20,BURGLARY-RESIDENCE,2202,Princeton Lakes,P,33.66011,-84.51684
156,90021835,2009-01-02,2009-01-02,2000,2009-01-02,2355.0,612.0,,,1582 MCPHERSON AVE SE,Morning Watch,20,BURGLARY-RESIDENCE,2202,East Atlanta,W,33.74416,-84.33591
157,90020070,2009-01-02,2009-01-02,0105,2009-01-02,110.0,404.0,,,731 CASCADE AVE SW,Morning Watch,20,AGG ASSAULT,1315,Westview,T,33.73527,-84.4367
158,90020046,2009-01-02,2009-01-02,0005,2009-01-02,45.0,503.0,,,989 SPRING ST NW,Morning Watch,,AGG ASSAULT,1315K,Midtown,E,33.7817,-84.38894
159,90020750,2009-01-02,2009-01-02,1300,2009-01-02,1320.0,511.0,,,82 PEACHTREE ST,Day Watch,8,AGG ASSAULT,1315K,Downtown,M,33.75241,-84.39174
160,90021500,2009-01-02,2009-01-02,1920,2009-01-02,2000.0,302.0,,,337 FLETCHER ST SW,Evening Watch,13,AGG ASSAULT,1315K,Pittsburgh,V,33.72578,-84.39909
161,90021576,2009-01-02,2009-01-01,0300,,,603.0,,,697 RALPH MCGILL BLVD,Evening Watch,20,AGG ASSAULT,1315K,Old Fourth Ward,M,33.76498,-84.36441
162,90021616,2009-01-02,2009-01-02,2125,2009-01-02,2135.0,410.0,,182,1860 HONEYSUCKLE LN SW,Evening Watch,26,AGG ASSAULT,1314,Campbellton Road,R,33.70676,-84.45353
163,90021437,2009-01-02,2009-01-02,1925,2009-01-02,1930.0,409.0,,,2159 CAMPBELLTON RD SW,Evening Watch,21,ROBBERY-COMMERCIAL,1201,Adams Park,R,33.70577,-84.45958
164,90021690,2009-01-02,2009-01-02,2220,2009-01-02,2225.0,211.0,,,2608 PIEDMONT RD NE,Unknown,21,ROBBERY-COMMERCIAL,1201,Lindbergh/Morosgo,B,33.82595,-84.36772999999998
165,90021154,2009-01-02,2009-01-02,1645,2009-01-02,1700.0,406.0,,,2414 HERRING RD SW,Evening Watch,18,ROBBERY-PEDESTRIAN,1204,Cascade Avenue/Road,S,33.72362,-84.46255999999998
166,90021180,2009-01-02,2008-12-31,1700,2008-12-31,1700.0,307.0,,,1660 JONESBORO RD,Evening Watch,7,ROBBERY-PEDESTRIAN,1204,Lakewood Heights,Y,33.70665,-84.37927
167,90021291,2009-01-02,2009-01-02,1800,2009-01-02,1805.0,304.0,,,207 ORMOND ST SE,Unknown,,ROBBERY-PEDESTRIAN,1204,Peoplestown,V,33.73139,-84.38111
168,90021733,2009-01-02,2009-01-02,1800,2009-01-02,1810.0,303.0,,,656 MCDANIEL ST SW,Evening Watch,13,ROBBERY-PEDESTRIAN,1204,Mechanicsville,V,33.73702,-84.40164
169,90010799,2009-01-02,2009-01-01,0800,2009-01-01,945.0,305.0,,,548 LYNNHAVEN DR SW,Morning Watch,20,AUTO THEFT,2424,South Atlanta,Y,33.71768,-84.38445
170,90020878,2009-01-02,2009-01-02,1440,2009-01-02,1440.0,612.0,,1108,1200 GLENWOOD AVE SE,Evening Watch,26,ROBBERY-RESIDENCE,1209,East Atlanta,W,33.74026,-84.34831
171,90020008,2009-01-02,2009-01-01,1630,2009-01-02,2.0,312.0,,517,2762 VINEYARDS DR SE,Morning Watch,18,AUTO THEFT,2424,Rosedale Heights,Z,33.67957,-84.36996
172,90020439,2009-01-02,2008-12-31,1330,2009-01-01,710.0,301.0,,,510 MELLVIEW AVE SW,Day Watch,18,AUTO THEFT,2424,Capitol View Manor,X,33.71754,-84.40439999999998
173,90020541,2009-01-02,2009-01-02,0300,2009-01-02,1044.0,410.0,,421,2280 CAMPBELLTON RD SW,Day Watch,18,AUTO THEFT,2424,Campbellton Road,R,33.70473,-84.4623
174,90020813,2009-01-02,2009-01-01,2200,2009-01-02,1356.0,505.0,,,835 PIEDMONT AVE NE,Day Watch,13,AUTO THEFT,2424,Midtown,E,33.77762,-84.38059
175,90021210,2009-01-02,2009-01-02,1700,2009-01-02,1720.0,107.0,,,2005 BAKER RD NW,Evening Watch,20,AUTO THEFT,2424,Grove Park,J,33.77027,-84.45261
176,90021348,2009-01-02,2009-01-02,1820,2009-01-02,1840.0,107.0,,,1830 DETROIT AVE NW,Evening Watch,20,AUTO THEFT,2424,Grove Park,J,33.76673,-84.44686
177,90021674,2009-01-02,2009-01-02,1930,2009-01-02,2130.0,411.0,,K14,3200 STONE RD SW,Morning Watch,26,AUTO THEFT,2424A,Greenbriar,R,33.6697,-84.49402999999998
178,90021706,2009-01-02,2009-01-01,1800,2009-01-02,1600.0,303.0,,,I-75SB @ I-20,Evening Watch,13,AUTO THEFT,2424,Mechanicsville,V,33.74497,-84.39036
179,90020165,2009-01-02,2009-01-02,0115,2009-01-02,245.0,301.0,,,752 BROOKLINE ST SW,Morning Watch,20,AUTO THEFT,2404,Adair Park,V,33.72687,-84.41222
180,90020245,2009-01-02,2009-01-01,2330,2009-01-02,527.0,605.0,,,775 MERCER ST SE,Morning Watch,13,AUTO THEFT,2404A,Grant Park,W,33.7352,-84.3621
181,90020406,2009-01-02,2009-01-01,2100,2009-01-02,900.0,104.0,,,1095 FOUNTAIN DR SW,Day Watch,20,AUTO THEFT,2404,Ashview Heights,T,33.75181,-84.42359999999998
182,90020458,2009-01-02,2008-12-31,2000,2009-01-02,1000.0,613.0,,,831 KINGS CT NE;,Unknown,13,AUTO THEFT,2404A,Morningside/Lenox Park,F,33.78844,-84.35989999999998
183,90020524,2009-01-02,2009-01-02,0001,2009-01-02,1031.0,303.0,,3303,500 MCDANIEL ST SW,Day Watch,18,AUTO THEFT,2404,Mechanicsville,V,33.74121,-84.40268
184,90020649,2009-01-02,2009-01-01,2300,2009-01-02,1100.0,614.0,,,886 VEDADO WAY NE,Day Watch,20,AUTO THEFT,2404,Midtown,E,33.77878,-84.37169
185,90020701,2009-01-02,2009-01-01,2300,2009-01-02,200.0,310.0,,,2292 CAREY DR SE,Unknown,,AUTO THEFT,2404A,Lakewood,Z,33.69152,-84.36969999999998
186,90020808,2009-01-02,2008-12-22,1200,2008-12-22,2300.0,304.0,,,I-75  NORTH @ I-20 EAST,Evening Watch,13,AUTO THEFT,2404,Summerhill,V,33.74485,-84.39005
187,90020923,2009-01-02,2008-12-28,1700,2008-12-29,1300.0,303.0,,,FULTON ST SW / PRYOR ST SW,Evening Watch,18,AUTO THEFT,2404,Mechanicsville,V,33.7419,-84.39452
188,90020989,2009-01-02,2009-01-02,1345,2009-01-02,1400.0,212.0,,,2335 CHESHIRE BRIDGE RD NE,Evening Watch,18,AUTO THEFT,2404,Lindridge/Martin Manor,F,33.81889,-84.35136
189,90021099,2009-01-02,2008-12-31,0300,2009-01-02,1630.0,107.0,,,423 ILLINOIS AVE NW,Evening Watch,20,AUTO THEFT,2404,Grove Park,J,33.76674,-84.45153
190,90021475,2009-01-02,2009-01-02,1800,2009-01-02,1800.0,304.0,,211,811 HANK AARON DR SW,Evening Watch,26,AUTO THEFT,2404,Summerhill,V,33.73255,-84.38803
191,90020795,2009-01-02,2008-12-28,1800,2008-12-30,1800.0,613.0,,B-6,1445 MONROE DR NE;,Day Watch,26,LARCENY-NON VEHICLE,2399,Morningside/Lenox Park,F,33.7945,-84.36336
192,90021163,2009-01-02,2009-01-02,1243,2009-01-02,1630.0,206.0,,,111 PEACHTREE BATTLE AVE NW,Unknown,20,LARCENY-NON VEHICLE,2399,Peachtree Heights West,B,33.8213,-84.39105
193,90021346,2009-01-02,2009-01-02,1835,2009-01-02,1840.0,614.0,,,931 MONROE DR NE,Evening Watch,21,LARCENY-NON VEHICLE,2399,Midtown,E,33.77973,-84.36759999999998
194,90021532,2009-01-02,2008-12-31,2200,2009-01-02,1500.0,604.0,APT,P,691 JOHN WESLEY DOBBS AVE NE,Evening Watch,26,LARCENY-NON VEHICLE,2399,Old Fourth Ward,M,33.75934,-84.36476999999998
195,90021621,2009-01-02,2009-01-02,2025,2009-01-02,2035.0,603.0,,,356 BOULEVARD NE,Evening Watch,23,LARCENY-NON VEHICLE,2399,Old Fourth Ward,M,33.76421,-84.37206
196,90021829,2009-01-02,2009-01-02,1000,2009-01-02,2300.0,503.0,,,44 10TH ST NE,Morning Watch,21,LARCENY-NON VEHICLE,2399,Midtown,E,33.78155,-84.38603999999998
197,90021833,2009-01-02,2009-01-02,2230,2009-01-02,2345.0,210.0,,A-8,2657 LENOX RD NE,Morning Watch,26,LARCENY-NON VEHICLE,2399,Pine Hills,B,33.82662,-84.35357999999998
198,83560941,2009-01-02,2008-12-21,0734,2008-12-21,1400.0,506.0,,,471 PAINES ST,Day Watch,20,LARCENY-NON VEHICLE,2399,English Avenue,L,33.76758,-84.41441
199,90020413,2009-01-02,2008-12-31,1500,2009-01-02,730.0,207.0,,425,1819 PEACHTREE RD NE,Day Watch,5,LARCENY-NON VEHICLE,2308,Brookwood Hills,E,33.80377,-84.39311999999998
200,90020537,2009-01-02,2009-01-01,2030,2009-01-01,2040.0,509.0,,,PEACHTREE ST NE / PINE ST NE,Day Watch,99,LARCENY-NON VEHICLE,2308,Downtown,M,33.76744,-84.38538
201,90020717,2009-01-02,2008-09-09,0800,2008-12-26,1600.0,201.0,,423,3160 HOWELL MILL RD,Day Watch,20,LARCENY-NON VEHICLE,2308,,C,33.84055,-84.42855
202,90021391,2009-01-02,2009-01-02,1900,2009-01-02,1900.0,402.0,,,1450 DONNELLY AVE SW,Evening Watch,23,LARCENY-NON VEHICLE,2308,West End,T,33.73772,-84.43479
203,90021179,2009-01-02,2009-01-02,1515,2009-01-02,1700.0,614.0,,,650 PONCE DE LEON AVE NE,Evening Watch,12,LARCENY-NON VEHICLE,2317,Midtown,E,33.77469,-84.36561
204,90020662,2009-01-02,2009-01-02,1130,2009-01-02,1130.0,506.0,,,533 GRIFFIN ST NW,Day Watch,12,ROBBERY-PEDESTRIAN,1205K,English Avenue,L,33.76931,-84.41106999999998
205,90020222,2009-01-02,2009-01-01,2030,2009-01-02,400.0,113.0,APT,524,1620 HOLLYWOOD RD NW,Morning Watch,18,LARCENY-FROM VEHICLE,2304,Scotts Crossing,G,33.79988,-84.47023
206,90020335,2009-01-02,2009-01-01,2000,2009-01-02,800.0,602.0,,,627 BONAVENTURE AVE NE,Day Watch,13,LARCENY-FROM VEHICLE,2304,Poncey-Highland,N,33.77166,-84.36072
207,90020611,2009-01-02,2009-01-01,2200,2009-01-02,1130.0,305.0,,3612,178 MOURY AVE SW;,Day Watch,13,LARCENY-FROM VEHICLE,2304,The Villages at Carver,Y,33.71347,-84.39078999999998
208,90020660,2009-01-02,2009-01-01,0030,2009-01-02,1200.0,506.0,,,611 NORTH AVE NW,Day Watch,18,LARCENY-FROM VEHICLE,2304,English Avenue,L,33.77013,-84.40734999999998
209,90020827,2009-01-02,2009-01-01,1400,2009-01-02,1400.0,308.0,,,960 CONSTITUTION RD,Evening Watch,26,LARCENY-FROM VEHICLE,2304,Norwood Manor,Z,33.69307,-84.35805
210,90020945,2009-01-02,2009-01-02,0100,2009-01-02,1630.0,614.0,,4,767 MONROE DR NE,Evening Watch,13,LARCENY-FROM VEHICLE,2304,Midtown,E,33.77526,-84.3707
211,90021569,2009-01-02,2009-01-02,1730,2009-01-02,2055.0,506.0,,,345 SUNSET AVE NW,Evening Watch,20,LARCENY-FROM VEHICLE,2304,English Avenue,L,33.76396,-84.40989
212,90021631,2009-01-02,2009-01-02,0100,2009-01-02,1900.0,207.0,,A40,1717 CENTRA VILLA DR SW,Morning Watch,18,LARCENY-FROM VEHICLE,2304,,E,33.80983,-84.39306999999998
213,90021822,2009-01-02,2009-01-02,1000,2009-01-02,1000.0,210.0,,,925 CANTERBURY RD NE,Morning Watch,18,LARCENY-FROM VEHICLE,2304,Pine Hills,B,33.82739,-84.35756999999998
214,90020026,2009-01-02,2009-01-02,0020,2009-01-02,21.0,612.0,,,1981 FLAT SHOALS RD SE,Morning Watch,23,LARCENY-NON VEHICLE,2307,East Atlanta,W,33.72602,-84.32324
215,90020496,2009-01-02,2008-08-29,1000,2009-01-02,1000.0,611.0,,,2315 GLENWOOD AVE SE,Day Watch,18,LARCENY-NON VEHICLE,2307,East Lake,O,33.73984,-84.31149
216,90020011,2009-01-02,2009-01-01,2000,2009-01-02,10.0,505.0,,,76 4TH ST NW,Morning Watch,18,LARCENY-FROM VEHICLE,2305,Midtown,E,33.77487,-84.38975
217,90020096,2009-01-02,2009-01-01,2215,2009-01-02,130.0,208.0,,,3365 PIEDMONT RD NE,Morning Watch,18,LARCENY-FROM VEHICLE,2305,North Buckhead,B,33.84709,-84.37295
218,90020199,2009-01-02,2009-01-01,1430,2009-01-02,340.0,212.0,,,2430 CHESHIRE BRIDGE RD NE,Morning Watch,18,LARCENY-FROM VEHICLE,2305,Lindridge/Martin Manor,F,33.82115,-84.35223999999998
219,90020266,2009-01-02,2009-01-02,0559,2009-01-02,559.0,607.0,,,1095 E CONFEDERATE AVE SE,Morning Watch,99,LARCENY-FROM VEHICLE,2305,Woodland Hills,W,33.72438,-84.35183999999998
220,90020295,2009-01-02,2009-01-01,1800,2009-01-02,700.0,508.0,,,15 SIMPSON ST NW,Day Watch,13,LARCENY-FROM VEHICLE,2305,Downtown,M,33.7634,-84.38808
221,90020427,2009-01-02,2009-01-01,2100,2009-01-02,925.0,503.0,,,368 8TH ST NE,Day Watch,13,LARCENY-FROM VEHICLE,2305,Midtown,E,33.7797,-84.37520999999998
222,90020532,2009-01-02,2009-01-02,0300,2009-01-02,500.0,408.0,,,1828 CUMMINGS DR SW,Morning Watch,20,LARCENY-FROM VEHICLE,2305,Venetian Hills,S,33.71696,-84.44760999999998
223,90020577,2009-01-02,2009-01-02,1200,2009-01-02,1200.0,114.0,,,3385 DONALD LEE HOLLOWELL PKY,Day Watch,99,LARCENY-FROM VEHICLE,2305,Atlanta Industrial Park,G,33.79162,-84.49741
224,90020652,2009-01-02,2009-01-02,1145,2009-01-02,1159.0,613.0,,,1544 PIEDMONT AVE NE,Day Watch,18,LARCENY-FROM VEHICLE,2305,Piedmont Heights,F,33.79789,-84.37101
225,90020724,2009-01-02,2008-12-31,2200,2009-01-01,1000.0,505.0,,,880 WEST PEACHTREE STREET,Day Watch,13,LARCENY-FROM VEHICLE,2305,Midtown,E,33.77894,-84.38768
226,90020730,2009-01-02,2009-01-02,0148,2009-01-02,150.0,208.0,,,3398 PIEDMONT RD NE,Day Watch,14,LARCENY-FROM VEHICLE,2305,Buckhead Forest,B,33.84712,-84.37385
227,90020733,2009-01-02,2009-01-02,1315,2009-01-02,1345.0,211.0,,,PIEDMONT RD NE / SIDNEY MARCUS BLVD NE,Unknown,18,LARCENY-FROM VEHICLE,2305,Lindbergh/Morosgo,B,33.82576,-84.36714999999998
228,90020762,2009-01-02,2009-01-01,2300,2009-01-02,1300.0,601.0,,,1014 SAINT CHARLES AVE NE,Day Watch,13,LARCENY-FROM VEHICLE,2305,Virginia Highland,F,33.7755,-84.35415999999998
229,90020804,2009-01-02,2009-01-02,1310,2009-01-02,1350.0,401.0,,,850 OAK ST SW @WEST END MALL,Day Watch,18,LARCENY-FROM VEHICLE,2305,West End,T,33.74053,-84.41670999999998
230,90020851,2009-01-02,2009-01-02,1100,2009-01-02,1422.0,401.0,,,633 EVANS ST SW,Evening Watch,18,LARCENY-FROM VEHICLE,2305,West End,T,33.7376,-84.41593
231,90020907,2009-01-02,2009-01-02,1230,2009-01-02,1330.0,103.0,,,1480 CHATTAHOOCHEE AVE NW,Day Watch,18,LARCENY-FROM VEHICLE,2305,Hills Park,D,33.80809,-84.43609999999998
232,90021019,2009-01-02,2009-01-01,1500,2009-01-01,1630.0,207.0,,,3393 PEACHTREE PARK DR NE,Day Watch,18,LARCENY-FROM VEHICLE,2305,,E,33.8138,-84.38957
233,90021102,2009-01-02,2009-01-02,0900,2009-01-02,1630.0,510.0,,,133 PEACHTREE ST NE,Evening Watch,18,LARCENY-FROM VEHICLE,2305,Downtown,M,33.75757,-84.3867
234,90021128,2009-01-02,2009-01-02,0900,2009-01-02,1700.0,505.0,,,754 W PEACHTREE ST NW,Evening Watch,18,LARCENY-FROM VEHICLE,2305,Midtown,E,33.77524,-84.38742
235,90021139,2009-01-02,2009-01-02,1615,2009-01-02,1640.0,511.0,,,58 ML KING DR,Evening Watch,13,LARCENY-FROM VEHICLE,2305,Downtown,M,33.75079,-84.38987
236,90021157,2009-01-02,2009-01-02,0415,2009-01-02,515.0,202.0,,,135 W WIEUCA RD NW,Morning Watch,31,LARCENY-FROM VEHICLE,2305,Chastain Park,A,33.87583,-84.39199999999998
237,90021325,2009-01-02,2009-01-02,1820,2009-01-02,1830.0,409.0,,,2348 CASCADE RD SW,Evening Watch,3,LARCENY-FROM VEHICLE,2305,Adams Park,R,33.72146,-84.46522
238,90021356,2009-01-02,2009-01-02,1500,2009-01-02,1800.0,210.0,,,3393 PEACHTREE RD NE,Evening Watch,18,LARCENY-FROM VEHICLE,2305,Lenox,B,33.84676,-84.36212
239,90021445,2009-01-02,2009-01-02,1200,2009-01-02,1935.0,503.0,,,MYRTLE ST NE / 10TH ST NE,Evening Watch,13,LARCENY-FROM VEHICLE,2305,Midtown,E,33.78179,-84.37940999999998
240,90021515,2009-01-02,2009-01-02,1920,2009-01-02,2020.0,601.0,,,1102 BRIARCLIFF PL NE;,Evening Watch,13,LARCENY-FROM VEHICLE,2305,Virginia Highland,F,33.7775,-84.35133
241,90021819,2009-01-02,2009-01-02,2240,2009-01-02,2330.0,507.0,,,218 WALKER ST,Morning Watch,13,LARCENY-FROM VEHICLE,2305,Castleberry Hill,M,33.74867,-84.40223
242,90020304,2009-01-02,2009-01-02,0715,2009-01-02,720.0,510.0,,,96 JESSE HILL JR DR SE,Day Watch,13,LARCENY-NON VEHICLE,2302,Downtown,M,33.75196,-84.38267999999998
243,90020298,2009-01-02,2008-12-19,2100,2009-01-02,700.0,507.0,,,190 MARIETTA ST NW,Day Watch,26,LARCENY-NON VEHICLE,2301,Downtown,M,33.75757,-84.39486999999998
244,90021334,2009-01-02,2008-12-30,2145,2008-12-30,2200.0,502.0,,,1073 PIEDMONT AVE NE @PIEDMONT PARK,Day Watch,31,LARCENY-NON VEHICLE,2301,Midtown,E,33.78384,-84.37896999999998
245,90020038,2009-01-02,2009-01-02,0039,2009-01-02,39.0,609.0,,,1225 CAROLINE ST NE,Morning Watch,12,LARCENY-NON VEHICLE,2303,Edgewood,O,33.75605,-84.34813
246,90020345,2009-01-02,2009-01-02,0536,2009-01-02,538.0,607.0,,,1362 BOULEVARD SE,Day Watch,23,LARCENY-NON VEHICLE,2303,Benteen Park,W,33.71744,-84.36817999999998
247,90020870,2009-01-02,2009-01-02,1434,2009-01-02,1434.0,604.0,,,439 HIGHLAND AVE NE,Evening Watch,12,LARCENY-NON VEHICLE,2303,Old Fourth Ward,M,33.76101,-84.37345
248,90020932,2009-01-02,2009-01-02,1513,2009-01-02,1530.0,206.0,,,2900 PEACHTREE RD NW,Evening Watch,12,LARCENY-NON VEHICLE,2303,Peachtree Heights West,B,33.83399,-84.3841
249,90021087,2009-01-02,2009-01-02,1600,2009-01-02,1628.0,401.0,,,683 JOSEPH E LOWERY,Evening Watch,12,LARCENY-NON VEHICLE,2303,West End,T,33.73646,-84.41838
250,90021184,2009-01-02,2009-01-02,1700,2009-01-02,1724.0,401.0,,,855 OAK ST  SW,Evening Watch,7,LARCENY-NON VEHICLE,2303,West End,T,33.74104,-84.41574
251,90021219,2009-01-02,2009-01-02,1700,2009-01-02,1700.0,609.0,,,1217 CAROLINE ST NE,Evening Watch,24,LARCENY-NON VEHICLE,2303,Edgewood,O,33.75786,-84.34874999999998
252,90021374,2009-01-02,2009-01-02,1900,2009-01-02,1900.0,210.0,,,3393 PEACHTREE ROAD,Evening Watch,8,LARCENY-NON VEHICLE,2303,Lenox,B,33.84676,-84.36212
253,90021425,2009-01-02,2009-01-02,1920,2009-01-02,1935.0,610.0,,B,1648 MEMORIAL DR SE,Evening Watch,12,LARCENY-NON VEHICLE,2303,Kirkwood,O,33.74755,-84.33396999999998
254,90021440,2009-01-02,2009-01-02,1900,2009-01-02,2000.0,411.0,,,2841 GREENBRIAR PKWY SW @GREENBRIAR MALL,Evening Watch,8,LARCENY-NON VEHICLE,2303,Greenbriar,R,33.68845,-84.49328
255,90030591,2009-01-03,2009-01-03,1020,2009-01-03,1035.0,511.0,,,12 BROAD ST,Day Watch,9,LARCENY-NON VEHICLE,2303,Downtown,M,33.7532,-84.39201
256,90030611,2009-01-03,2009-01-03,1035,2009-01-03,1035.0,210.0,,,3393 PEACHTREE RD NE,Day Watch,8,LARCENY-NON VEHICLE,2303,Lenox,B,33.84676,-84.36212
257,90030859,2009-01-03,2009-01-03,1315,2009-01-03,1400.0,204.0,,,1801 HOWELL MILL RD NW,Day Watch,24,LARCENY-NON VEHICLE,2303,Berkeley Park,D,33.80448,-84.41348
258,90030977,2009-01-03,2009-01-03,1510,2009-01-03,1520.0,602.0,,,1133 EUCLID AVE NE,Evening Watch,13,LARCENY-NON VEHICLE,2303,Inman Park,N,33.76451,-84.34999999999998
259,90030999,2009-01-03,2009-01-03,1530,2009-01-03,1535.0,511.0,,,12 BROAD ST SW,Evening Watch,24,LARCENY-NON VEHICLE,2303,Downtown,M,33.7532,-84.39201
260,90031062,2009-01-03,2009-01-03,1600,2009-01-03,1608.0,401.0,,,683 JOSEPH E LOWERY BLVD SW,Evening Watch,12,LARCENY-NON VEHICLE,2303,West End,T,33.73646,-84.41838
261,90031073,2009-01-03,2009-01-03,1555,2009-01-03,1610.0,210.0,,,3637 PEACHTREE RD NE,Evening Watch,99,LARCENY-NON VEHICLE,2303,Lenox,B,33.85325,-84.35832
262,90031121,2009-01-03,2009-01-03,1635,2009-01-03,1640.0,414.0,,,3730 CARMIA DR SW,Evening Watch,12,LARCENY-NON VEHICLE,2303,Princeton Lakes,P,33.65573,-84.5109
263,90031186,2009-01-03,2009-01-03,1800,2009-01-03,1800.0,210.0,,,3393 PEACHTREE ROAD,Evening Watch,8,LARCENY-NON VEHICLE,2303,Lenox,B,33.84676,-84.36212
264,90031207,2009-01-03,2009-01-03,1700,2009-01-03,1715.0,204.0,,100,1801 HOWELL MILL RD NW,Evening Watch,8,LARCENY-NON VEHICLE,2303,Berkeley Park,D,33.80448,-84.41348
265,90031374,2009-01-03,2009-01-03,1830,2009-01-03,1850.0,201.0,,,2567 BOLTON RD NW,Evening Watch,8,LARCENY-NON VEHICLE,2303,,C,33.82041,-84.45068
266,90031438,2009-01-03,2009-01-03,1600,2009-01-03,1630.0,607.0,,,1334 BOULEVARD SE,Evening Watch,24,LARCENY-NON VEHICLE,2303,Benteen Park,W,33.71874,-84.36840999999998
267,90030636,2009-01-03,2009-01-03,1045,2009-01-03,1050.0,411.0,,,3011 HEADLAND DR SW,Day Watch,2,LARCENY-NON VEHICLE,2301,Greenbriar,R,33.68984,-84.48675
268,90010803,2009-01-03,2009-01-01,1045,2009-01-01,1123.0,102.0,,,825 MARTIN LKING DR,Day Watch,7,LARCENY-NON VEHICLE,2303,Vine City,L,33.75479,-84.41467
269,90030059,2009-01-03,2009-01-02,2100,2009-01-03,0.0,612.0,,,1539 MARBUT AVE SE,Morning Watch,20,LARCENY-FROM VEHICLE,2305,East Atlanta,W,33.74304,-84.33728999999998
270,90030120,2009-01-03,2009-01-02,2030,2009-01-03,100.0,503.0,,,208 12TH ST NE,Morning Watch,13,LARCENY-FROM VEHICLE,2305,Midtown,E,33.78461,-84.38057999999998
271,90030133,2009-01-03,2009-01-02,2230,2009-01-03,250.0,504.0,,,800 MARIETTA ST NW,Morning Watch,18,LARCENY-FROM VEHICLE,2305,Marietta Street Artery,E,33.77381,-84.40575
272,90030185,2009-01-03,2009-01-02,1800,2009-01-02,2330.0,512.0,,,76 MEMORIAL DR SW,Morning Watch,18,LARCENY-FROM VEHICLE,2305,Downtown,M,33.74683,-84.39005
273,90030361,2009-01-03,2009-01-02,1945,2009-01-03,615.0,610.0,,,2248 RIDGEDALE RD NE,Morning Watch,20,LARCENY-FROM VEHICLE,2305,Kirkwood,O,33.75346,-84.31382
274,90030381,2009-01-03,2009-01-03,0000,2009-01-03,500.0,610.0,,,115 MELLRICH AVE NE,Day Watch,20,LARCENY-FROM VEHICLE,2305,Kirkwood,O,33.75546,-84.31252999999998
275,90030402,2009-01-03,2009-01-02,1800,2009-01-03,600.0,403.0,,,1203 LEE ST SW,Day Watch,33,LARCENY-FROM VEHICLE,2305,Oakland City,S,33.72212,-84.42346999999998
276,90030504,2009-01-03,2009-01-02,1800,2009-01-03,900.0,614.0,,,895 DURANT PLACE NE,Day Watch,13,LARCENY-FROM VEHICLE,2305,Midtown,E,33.77899,-84.37506
277,90030540,2009-01-03,2009-01-03,0300,2009-01-03,930.0,403.0,,,1339 CAMPBELLTON RD SW,Day Watch,18,LARCENY-FROM VEHICLE,2305,Venetian Hills,S,33.71572,-84.43206
278,90030586,2009-01-03,2009-01-03,0115,2009-01-03,945.0,610.0,,,222 HOWARD ST NE,Day Watch,13,LARCENY-FROM VEHICLE,2305,Kirkwood,O,33.75887,-84.32348
279,90030632,2009-01-03,2009-01-03,0001,2009-01-03,1000.0,612.0,,,454 BLAKE AVE SE,Day Watch,13,LARCENY-FROM VEHICLE,2305,East Atlanta,W,33.74153,-84.33811
280,90030687,2009-01-03,2009-01-02,2200,2009-01-03,900.0,505.0,,,3RD ST NE / PIEDMONT AVE NE,Day Watch,13,LARCENY-FROM VEHICLE,2305,Midtown,E,33.77346,-84.38169
281,90030691,2009-01-03,2009-01-03,0100,2009-01-03,1130.0,406.0,,,659 LYNN VALLEY RD SW,Day Watch,20,LARCENY-FROM VEHICLE,2305,,I,33.73754,-84.48495
282,90030701,2009-01-03,2009-01-02,1900,2009-01-03,1139.0,614.0,,,375 6TH ST NE,Day Watch,13,LARCENY-FROM VEHICLE,2305,Midtown,E,33.77592,-84.37509
283,90030745,2009-01-03,2009-01-02,2330,2009-01-03,1200.0,508.0,,,SPRING ST NW / CARNEGIE WAY NW,Day Watch,18,LARCENY-FROM VEHICLE,2305,Downtown,M,33.75903,-84.38906
284,90030777,2009-01-03,2009-01-03,1030,2009-01-03,1230.0,510.0,,135,209 EDGEWOOD AVE SE,Evening Watch,18,LARCENY-FROM VEHICLE,2305,Downtown,M,33.75434,-84.38015
285,90030810,2009-01-03,2008-12-30,1830,2008-12-30,2130.0,606.0,,,1111 WYLIE ST SE,Day Watch,20,LARCENY-FROM VEHICLE,2305,Reynoldstown,N,33.75218,-84.35071
286,90030855,2009-01-03,2009-01-02,2300,2009-01-03,1340.0,204.0,,,1193 COLLIER RD NW,Evening Watch,18,LARCENY-FROM VEHICLE,2305,,C,33.81172,-84.42449999999998
287,90030885,2009-01-03,2008-01-01,1900,2009-01-03,1430.0,603.0,,152,300 CITYLANE AVE NE,Evening Watch,18,LARCENY-FROM VEHICLE,2305,Old Fourth Ward,M,33.77018,-84.37802999999998
288,90030893,2009-01-03,2009-01-03,0100,2009-01-03,1305.0,102.0,,,868 JOSEPH E BOONE,Evening Watch,18,LARCENY-FROM VEHICLE,2305,Vine City,L,33.76319,-84.41612
289,90030896,2009-01-03,2009-01-03,0850,2009-01-03,1413.0,303.0,,,490 GLENN ST SW,Day Watch,13,LARCENY-FROM VEHICLE,2305,Mechanicsville,V,33.73805,-84.40262
290,90030978,2009-01-03,2009-01-03,1345,2009-01-03,1500.0,502.0,,,PEACHTREE ST NE / 16TH ST NE,Evening Watch,20,LARCENY-FROM VEHICLE,2305,Ansley Park,E,33.79098,-84.38411
291,90031054,2009-01-03,2009-01-03,1200,2009-01-03,1600.0,508.0,,,225 BAKER ST NW @GA AQUARIUM,Evening Watch,18,LARCENY-FROM VEHICLE,2305,Downtown,M,33.76274,-84.39443
292,90031080,2009-01-03,2009-01-03,1625,2009-01-03,1645.0,510.0,,,1 PARK PL NE,Evening Watch,13,LARCENY-FROM VEHICLE,2305,Downtown,M,33.75492,-84.38841999999998
293,90031412,2009-01-03,2009-01-03,1030,2009-01-03,1800.0,508.0,,,230 SPRING ST NW,Evening Watch,18,LARCENY-FROM VEHICLE,2305,Downtown,M,33.76075,-84.38916
294,90031452,2009-01-03,2009-01-02,1630,2009-01-02,2100.0,210.0,,,3393 PEACHTREE RD NE,Evening Watch,13,LARCENY-FROM VEHICLE,2305,Lenox,B,33.84676,-84.36212
295,90031489,2009-01-03,2009-01-03,1845,2009-01-03,1930.0,503.0,,,970 PIEDMONT AVE NE,Evening Watch,18,LARCENY-FROM VEHICLE,2305,Midtown,E,33.78113,-84.38095
296,90040983,2009-01-03,2009-01-02,0900,2009-01-02,1800.0,210.0,,,3393 PEACHTREE RD NE,Morning Watch,13,LARCENY-FROM VEHICLE,2305,Lenox,B,33.84676,-84.36212
297,90031604,2009-01-03,2009-01-03,2000,2009-01-03,2145.0,613.0,,,1423 N HIGHLAND AVE NE,Evening Watch,18,LARCENY-FROM VEHICLE,2305,Morningside/Lenox Park,F,33.79323,-84.35137
298,90031769,2009-01-03,2009-01-03,1950,2009-01-03,2329.0,211.0,,,721 MIAMI CIR NE,Evening Watch,18,LARCENY-FROM VEHICLE,2305,Lindbergh/Morosgo,B,33.82964,-84.36306
299,90030575,2009-01-03,2009-01-01,0800,2009-01-03,1008.0,312.0,,503,2762 VINEYARDS DR SE,Day Watch,18,LARCENY-FROM VEHICLE,2304,Rosedale Heights,Z,33.67957,-84.36996
300,90030647,2009-01-03,2009-01-02,0900,2009-01-03,1030.0,210.0,,,3405 LENOX RD NE,Day Watch,18,LARCENY-FROM VEHICLE,2304,Lenox,B,33.848,-84.35947
301,90030818,2009-01-03,2009-01-02,1000,2009-01-03,1315.0,503.0,,,972 MYRTLE STREET,Day Watch,13,LARCENY-FROM VEHICLE,2304,Midtown,E,33.78118,-84.37965
302,90030937,2009-01-03,2009-01-03,1215,2009-01-03,1600.0,304.0,,,974 WASHINGTON ST SW,Evening Watch,13,LARCENY-FROM VEHICLE,2304,Peoplestown,V,33.72823,-84.39065999999998
303,90030548,2009-01-03,2009-01-02,1750,2009-01-03,945.0,207.0,,276,1968 PEACHTREE RD NW,Day Watch,9,LARCENY-NON VEHICLE,2308,,E,33.80901,-84.39342
304,90030669,2009-01-03,2008-10-22,1200,2008-10-31,1200.0,613.0,,,1833 CHARLINE AVE NE,Day Watch,20,LARCENY-NON VEHICLE,2308,Morningside/Lenox Park,F,33.80442,-84.34672
305,90031283,2009-01-03,2009-01-03,1300,2009-01-03,1700.0,208.0,,,3365 PIEDMONT RD NE,Evening Watch,21,LARCENY-NON VEHICLE,2308,North Buckhead,B,33.84709,-84.37295
306,90031526,2009-01-03,2009-01-03,1430,2009-01-03,1500.0,511.0,,,30 MARIETTA ST,Day Watch,21,LARCENY-NON VEHICLE,2308,Downtown,M,33.75478,-84.39134
307,90030641,2009-01-03,2009-01-01,0030,2009-01-03,1030.0,105.0,,,1187 MARTIN L KING JR DR NW,Day Watch,4,LARCENY-NON VEHICLE,2399,Hunter Hills,K,33.75405,-84.42621
308,90030961,2009-01-03,2009-01-03,1450,2009-01-03,1510.0,512.0,,,225 CENTRAL AVE SW,Evening Watch,21,LARCENY-NON VEHICLE,2399,Downtown,M,33.74833,-84.39183
309,90031177,2009-01-03,2009-01-03,1700,2009-01-03,1705.0,105.0,,,1576 JOSEPH BOONE,Evening Watch,3,LARCENY-NON VEHICLE,2399,West Lake,J,33.76331,-84.43913999999998
310,90031203,2009-01-03,2009-01-03,1000,2009-01-03,1600.0,509.0,,,229 PEACHTREE ST NE,Evening Watch,05,LARCENY-NON VEHICLE,2399,Downtown,M,33.7604,-84.38746
311,90031268,2009-01-03,2009-01-03,1215,2009-01-03,1800.0,113.0,,,1698 JACKSON SQ NW,Evening Watch,20,LARCENY-NON VEHICLE,2399,Lincoln Homes,G,33.79629,-84.47548
312,90031803,2009-01-03,2009-01-03,2300,2009-01-03,2347.0,504.0,,,800 MARIETTA ST NW,Morning Watch,21,LARCENY-NON VEHICLE,2399,Marietta Street Artery,E,33.77381,-84.40575
313,90030383,2009-01-03,2009-01-03,0645,2009-01-03,650.0,506.0,,1225,370 NORTHSIDE DR NW,Day Watch,18,ROBBERY-PEDESTRIAN,1299G,English Avenue,L,33.76507,-84.4042
314,90021655,2009-01-03,2009-01-02,2150,2009-01-02,2151.0,403.0,,,1324 ALMONT DR,Morning Watch,20,ROBBERY-PEDESTRIAN,1205,Oakland City,S,33.7257,-84.43128
315,90030015,2009-01-03,2009-01-03,0008,2009-01-03,10.0,608.0,,,1641 S PONCE DE LEON AVE NE,Morning Watch,20,AUTO THEFT,2404,Druid Hills,N,33.77293,-84.33358
316,90030102,2009-01-03,2009-01-03,0000,2009-01-03,50.0,614.0,,,897 MONROE CIR NE,Morning Watch,18,AUTO THEFT,2404,Midtown,E,33.77917,-84.36851
317,90030113,2009-01-03,2009-01-02,2230,2009-01-03,100.0,307.0,,,52 CLAIRE DR SE,Morning Watch,13,AUTO THEFT,2404A,Lakewood Heights,Y,33.7053,-84.38652999999998
318,90030277,2009-01-03,2009-01-02,2230,2009-01-03,330.0,506.0,,,800 WEST MARIETTA,Morning Watch,26,AUTO THEFT,2404,English Avenue,L,33.78022,-84.41513999999998
319,90030414,2009-01-03,2009-01-03,0300,2009-01-03,600.0,403.0,,,1292 LORENZO DR SW,Morning Watch,20,AUTO THEFT,2404,Venetian Hills,S,33.71978,-84.4323
320,90030959,2009-01-03,2009-01-03,1200,2009-01-03,1430.0,306.0,,,765 MCDANIEL ST,Evening Watch,26,AUTO THEFT,2404,Sylvan Hills,X,33.71039,-84.4217
321,90030985,2009-01-03,2009-01-02,2300,2009-01-03,1600.0,306.0,,,1018 BYRON DR SW,Evening Watch,20,AUTO THEFT,2404A,Sylvan Hills,X,33.71251,-84.42149999999998
322,90031364,2009-01-03,2009-01-03,1500,2009-01-03,1930.0,411.0,,,2841 GREENBRIAR PKWY SW @GREENBRIAR MALL,Evening Watch,17,AUTO THEFT,2404,Greenbriar,R,33.68845,-84.49328
323,90031565,2009-01-03,2009-01-03,2115,2009-01-03,2115.0,505.0,,,855 W PEACHTREE ST,Evening Watch,13,AUTO THEFT,2404,Midtown,E,33.77773,-84.38718
324,90031678,2009-01-03,2009-01-03,2232,2009-01-03,2300.0,111.0,,,2527 LAUREL CIR NW,Morning Watch,20,AUTO THEFT,2404,Westhaven,I,33.7572,-84.47356
325,90031779,2009-01-03,2009-01-03,0900,2009-01-03,2200.0,302.0,,212,1093 WEST AVE SW,Morning Watch,26,AUTO THEFT,2404,Pittsburgh,V,33.72481,-84.39571999999998
326,90030076,2009-01-03,2009-01-03,0045,2009-01-03,50.0,104.0,,,1467 ADELE AVE SW,Morning Watch,20,AUTO THEFT,2424,Mozley Park,K,33.75254,-84.43548
327,90030532,2009-01-03,2009-01-03,0001,2009-01-03,600.0,406.0,,,605 LYNN VALLEY RD SW,Day Watch,20,AUTO THEFT,2424,,I,33.73905,-84.48385
328,90030566,2009-01-03,2009-01-02,2200,2009-01-03,1004.0,410.0,,242,1895 PLAZA LN SW,Day Watch,18,AUTO THEFT,2424A,Campbellton Road,R,33.70316,-84.45278999999998
329,90031562,2009-01-03,2009-01-03,1100,2009-01-03,2100.0,306.0,,,1919 METROPOLITAN PKWY SW,Evening Watch,18,AUTO THEFT,2424,Sylvan Hills,X,33.70278,-84.41016999999998
330,90031798,2009-01-03,2009-01-03,2230,2009-01-03,2240.0,604.0,,,EDGEWOOD AVE NE / HILLIARD ST NE,Morning Watch,13,AUTO THEFT,2424,Sweet Auburn,M,33.75437,-84.37659999999998
331,90030515,2009-01-03,2009-01-03,0900,2009-01-03,910.0,302.0,,,UNIVERSITY AVE SW / GARIBALDI ST SW,Day Watch,13,ROBBERY-PEDESTRIAN,1206,Pittsburgh,V,33.72212,-84.39927
332,90030874,2009-01-03,2009-01-03,1355,2009-01-03,1400.0,607.0,APT,LEASI,1940 FISHER RD SE,Day Watch,13,ROBBERY-PEDESTRIAN,1206,Custer/McDonough/Guice,W,33.70979,-84.35849
333,90030733,2009-01-03,2009-01-03,1145,2009-01-03,1155.0,403.0,,,1397 ELIZABETH AVE SW,Day Watch,20,ROBBERY-RESIDENCE,1209,Venetian Hills,S,33.7161,-84.43585
334,90030909,2009-01-03,2009-01-03,1420,2009-01-03,1430.0,107.0,,,383 YONKERS AVE NW,Evening Watch,13,ROBBERY-PEDESTRIAN,1204,Grove Park,J,33.76579,-84.45443
335,90031239,2009-01-03,2009-01-03,1750,2009-01-03,1753.0,107.0,,,1838 DONALD LEE HOLLOWELL PKWY NW,Evening Watch,30,ROBBERY-PEDESTRIAN,1204,Grove Park,J,33.77425,-84.44728
336,90031476,2009-01-03,2009-01-03,2010,2009-01-03,2015.0,609.0,,,225 MAYSON AVE NE,Evening Watch,13,ROBBERY-PEDESTRIAN,1204,Edgewood,O,33.75989,-84.33827999999998
337,90031731,2009-01-03,2009-01-03,2300,2009-01-03,2310.0,603.0,D,,455 NORTH AVE,Morning Watch,21,ROBBERY-PEDESTRIAN,1204,Old Fourth Ward,M,33.77118,-84.37177
338,90031753,2009-01-03,2009-01-03,2230,2009-01-03,2300.0,309.0,,,757 CLEVELAND AVE SW,Morning Watch,13,ROBBERY-PEDESTRIAN,1204,Perkerson,X,33.68232,-84.41417
339,90031510,2009-01-03,2009-01-03,2030,2009-01-03,2100.0,607.0,,,1145 GLENWOOD AVE SE,Evening Watch,21,ROBBERY-COMMERCIAL,1201,Ormewood Park,W,33.74028,-84.34968999999998
340,90030247,2009-01-03,2009-01-03,0300,2009-01-03,330.0,503.0,,,57 13TH ST NE,Morning Watch,3,AGG ASSAULT,1314,Midtown,E,33.78553,-84.38568999999998
341,90030311,2009-01-03,2009-01-03,0436,2009-01-03,445.0,106.0,,,1217 JOSEPH E BOONE BLVD NW,Morning Watch,18,AGG ASSAULT,1314,Bankhead,K,33.76361,-84.42787
342,90031572,2009-01-03,2009-01-03,2120,2009-01-03,2120.0,404.0,,,1572 LINDA WAY SW,Evening Watch,13,AGG ASSAULT,1314,Westview,T,33.73424,-84.43904
343,90031816,2009-01-03,2009-01-03,2200,2009-01-03,2200.0,407.0,,,3553 MARTIN LUTHER KING JR DR,Evening Watch,3,AGG ASSAULT,1314,Wildwood (NPU-H),H,33.7431,-84.51838999999998
344,90031577,2009-01-03,2009-01-03,2100,2009-01-03,2105.0,113.0,,,1314 NORTHWEST DR NW,Evening Watch,20,AGG ASSAULT,1315,Monroe Heights,G,33.79156,-84.48102
345,90030049,2009-01-03,2009-01-02,1730,2009-01-03,5.0,410.0,,R205,1999 BENT CREEK WAY SW,Morning Watch,26,BURGLARY-RESIDENCE,2202,Campbellton Road,R,33.70087,-84.46573999999998
346,90030107,2009-01-03,2009-01-02,1530,2009-01-03,100.0,306.0,,112,1990 RAMBLING DR SW,Morning Watch,26,BURGLARY-RESIDENCE,2202,Sylvan Hills,X,33.7007,-84.40716
347,90030130,2009-01-03,2009-01-02,2230,2009-01-03,121.0,103.0,,,2324 ADAMS DR NW,Morning Watch,20,BURGLARY-RESIDENCE,2202,Bolton,D,33.81911,-84.45507999999998
348,90030217,2009-01-03,2009-01-02,1945,2009-01-03,245.0,412.0,,21204,1381 KIMBERLY RD SW,Morning Watch,26,BURGLARY-RESIDENCE,2202,Ashley Courts,P,33.71857,-84.52151
349,90030254,2009-01-03,2009-01-02,1600,2009-01-03,320.0,409.0,,,3076 IMPERIAL CIR SW,Morning Watch,20,BURGLARY-RESIDENCE,2202,Southwest,R,33.69869,-84.49532999999998
350,90030578,2009-01-03,2009-01-02,1600,2009-01-02,2030.0,413.0,,,2530 BARGE RD SW,Evening Watch,20,BURGLARY-RESIDENCE,2202,Rue Royal,P,33.68614,-84.50618
351,90030590,2009-01-03,2008-12-20,1500,2009-01-02,1500.0,114.0,,,3512 COLLIER RD NW,Day Watch,20,BURGLARY-RESIDENCE,2202,Fairburn Heights,H,33.76862,-84.50184
352,90030655,2009-01-03,2008-12-31,1500,2009-01-03,1100.0,301.0,,,1433 BEATIE AVE SW,Day Watch,20,BURGLARY-RESIDENCE,2202,Capitol View,X,33.7157,-84.41113
353,90030857,2009-01-03,2008-12-31,0600,2009-01-03,1300.0,202.0,,,1673 MOUNT PARAN RD NW,Evening Watch,20,BURGLARY-RESIDENCE,2202,Mt. Paran/Northside,A,33.86781,-84.43098
354,90031212,2009-01-03,2009-01-01,0700,2009-01-03,1735.0,104.0,,,147 LAWTON ST SW,Evening Watch,20,BURGLARY-RESIDENCE,2202,Ashview Heights,T,33.75071,-84.42346999999998
355,90031807,2009-01-03,2009-01-03,1945,2009-01-03,2330.0,304.0,,,990 GRANT TER SE,Morning Watch,20,BURGLARY-RESIDENCE,2202,Peoplestown,V,33.72729,-84.37948
356,90021836,2009-01-03,2009-01-02,2350,2009-01-02,2355.0,106.0,,,1101 CHURCH ST NW,Morning Watch,20,AGG ASSAULT,1399,Knight Park/Howell Station,K,33.78441,-84.42333
357,90030092,2009-01-03,2009-01-03,0054,2009-01-03,135.0,403.0,M,6,1240 OAKLAND DR,Morning Watch,26,AGG ASSAULT,1399,Oakland City,S,33.72138,-84.42733
358,90030812,2009-01-03,2009-01-03,1245,2009-01-03,1300.0,409.0,APT,H-30,2909 CAMPBELLTON RD SW,Day Watch,26,AGG ASSAULT,1399,Southwest,R,33.69869,-84.48265
359,90021622,2009-01-03,2008-12-29,0800,2009-01-02,100.0,409.0,,,3158 MTGILEAD ROAD,Morning Watch,20,BURGLARY-RESIDENCE,2202,Southwest,R,33.6969,-84.49382
360,90030166,2009-01-03,2009-01-03,0207,2009-01-03,209.0,409.0,,,2910 CAMPBELLTON RD SW,Morning Watch,21,BURGLARY-NONRES,2203,Southwest,R,33.69754,-84.48364999999998
361,90030455,2009-01-03,2009-01-03,1000,2009-01-03,1000.0,114.0,,,2655 DONALD LEE HOLLOWELL PKY,Day Watch,99,BURGLARY-NONRES,2203,Carroll Heights,H,33.77153,-84.51258
362,90030464,2009-01-03,2009-01-03,0831,2009-01-03,845.0,407.0,,,286 WILSON MILL RD SW,Day Watch,35,BURGLARY-NONRES,2203,Wisteria Gardens,H,33.7547,-84.51365
363,90030485,2009-01-03,2009-01-01,1500,2009-01-03,830.0,404.0,,,820 BEECHER CT SW,Day Watch,11,BURGLARY-NONRES,2203,Cascade Avenue/Road,S,33.73285,-84.44772
364,90030503,2009-01-03,2009-01-02,1900,2009-01-03,850.0,106.0,,,1371 JOSEPH E BOONE BLVD NW,Unknown,99,BURGLARY-NONRES,2203,Bankhead,K,33.76372,-84.43259999999998
365,90030552,2009-01-03,2009-01-02,1700,2009-01-03,730.0,501.0,,,990 BRADY AVE NW,Day Watch,24,BURGLARY-NONRES,2203,Home Park,E,33.78225,-84.41391
366,90031619,2009-01-03,2009-01-03,2155,2009-01-03,2200.0,107.0,,,1625 NORTH AVE,Evening Watch,7,BURGLARY-NONRES,2203,Grove Park,J,33.76816,-84.44088999999998
367,90030869,2009-01-03,2009-01-03,0400,2009-01-03,1200.0,211.0,,2305,2305 LAKESHORE XING NE,Day Watch,26,BURGLARY-RESIDENCE,2204,Lindridge/Martin Manor,F,33.81678,-84.36437999999998
368,90031350,2009-01-03,2008-12-01,0800,2008-12-01,1700.0,113.0,,,1583 BRIDGEPORT DR NW,Evening Watch,20,BURGLARY-RESIDENCE,2204,Lincoln Homes,G,33.79859,-84.47749
369,90031599,2009-01-03,2009-01-03,1916,2009-01-03,2138.0,102.0,,,77 JAMES P BRAWLEY DR NW,Evening Watch,20,BURGLARY-RESIDENCE,2202A,Vine City,L,33.75677,-84.41257
370,90040077,2009-01-04,2009-01-04,0038,2009-01-04,39.0,403.0,,,1382 LOCKWOOD DR SW,Morning Watch,20,BURGLARY-RESIDENCE,2202A,Venetian Hills,S,33.71756,-84.43854
371,90041448,2009-01-04,2009-01-04,2100,2009-01-04,2115.0,610.0,,,2122 LANES LN NE,Evening Watch,20,BURGLARY-RESIDENCE,2202A,Kirkwood,O,33.75878,-84.31757
372,90041458,2009-01-04,2008-12-24,1700,2009-01-04,2115.0,414.0,,,2725 DEERWOOD LN SW,Day Watch,20,BURGLARY-RESIDENCE,2202A,Ben Hill,P,33.67272,-84.51553
373,90040027,2009-01-04,2009-01-04,0005,2009-01-04,10.0,403.0,,,1163 WILMINGTON AVE SW,Morning Watch,20,BURGLARY-RESIDENCE,2204,Oakland City,S,33.7242,-84.42601999999998
374,90040199,2009-01-04,2009-01-03,1600,2009-01-04,205.0,102.0,,1109,812 MAGNOLIA WAY NW,Evening Watch,26,BURGLARY-RESIDENCE,2204,Vine City,L,33.75805,-84.41415999999998
375,90040520,2009-01-04,2009-01-03,2200,2009-01-04,924.0,614.0,,B,345 5TH ST NE,Day Watch,20,BURGLARY-RESIDENCE,2204,Midtown,E,33.77523,-84.37619999999998
376,90040883,2009-01-04,2009-01-04,1200,2009-01-04,1400.0,610.0,,,173 CLAY ST SE,Evening Watch,20,BURGLARY-RESIDENCE,2204,Kirkwood,O,33.74852,-84.33074
377,90041007,2009-01-04,2008-12-18,1330,2009-01-04,1600.0,501.0,,4007,390 17TH ST NW,Evening Watch,26,BURGLARY-RESIDENCE,2204,Atlantic Station,E,33.7902,-84.4003
378,90041280,2009-01-04,2008-12-01,1000,2009-01-02,1000.0,212.0,,101,2230-50 CHESHIRE BRIDGE RD NE,Evening Watch,26,BURGLARY-RESIDENCE,2204,Lindridge/Martin Manor,F,33.81592,-84.35268
379,90040052,2009-01-04,2009-01-04,0001,2009-01-04,30.0,604.0,STE,T-6,49 BOULEVARD SE,Morning Watch,24,BURGLARY-NONRES,2203,Sweet Auburn,M,33.75275,-84.37186
380,90040160,2009-01-04,2009-01-04,0153,2009-01-04,155.0,612.0,,,712 MORELAND AVE SE,Morning Watch,99,BURGLARY-NONRES,2203,East Atlanta,W,33.73489,-84.34919999999998
381,90040383,2009-01-04,2009-01-04,0622,2009-01-04,622.0,407.0,,,286 WILSON MILL RD SW @ADAMSVILLE ELEMENTA,Day Watch,35,BURGLARY-NONRES,2203,Wisteria Gardens,H,33.7547,-84.51365
382,90040409,2009-01-04,2009-01-03,1700,2009-01-04,750.0,604.0,117,,572 EDGEWOOD AVE NE,Morning Watch,24,BURGLARY-NONRES,2203,Old Fourth Ward,M,33.75739,-84.36774
383,90040418,2009-01-04,2009-01-03,2130,2009-01-04,700.0,604.0,,,581 EDGEWOOD AVE SE,Morning Watch,24,BURGLARY-NONRES,2203,Old Fourth Ward,M,33.7541,-84.36837
384,90040452,2009-01-04,2009-01-04,0829,2009-01-04,835.0,607.0,,,1104 MORELAND AVE SE,Day Watch,,BURGLARY-NONRES,2203,East Atlanta,W,33.7246,-84.34932
385,90040512,2009-01-04,2009-01-04,0910,2009-01-04,920.0,505.0,,,216 PONCE DE LEON AVE,Day Watch,21,BURGLARY-NONRES,2203,Midtown,E,33.77267,-84.38008
386,90040564,2009-01-04,2009-01-03,1800,2009-01-04,1014.0,312.0,,,3272 BROWNS MILL RD SE,Day Watch,4,BURGLARY-NONRES,2203,Orchard Knob,Z,33.66629,-84.37921
387,90040599,2009-01-04,2009-01-03,1105,2009-01-03,1135.0,304.0,,,148 GLENWOOD AVE,Day Watch,4,BURGLARY-NONRES,2203,Summerhill,V,33.74265,-84.38245999999998
388,90041271,2009-01-04,2009-01-04,1856,2009-01-04,1930.0,205.0,,,1942 HOWELL MILL RD NW,Evening Watch,21,BURGLARY-NONRES,2203,Wildwood (NPU-C),C,33.80765,-84.41299999999998
389,90041591,2009-01-04,2009-01-04,2330,2009-01-04,2335.0,508.0,,,135 ANDREW YOUNG INTERNA BLVD NW,Morning Watch,24,BURGLARY-NONRES,2203,Downtown,M,33.76002,-84.39177999999998
390,90031702,2009-01-04,2009-01-03,2235,2009-01-03,2245.0,511.0,,,35 FORSYTH ST SW,Evening Watch,21,AGG ASSAULT,1399,Downtown,M,33.75343,-84.39311999999998
391,90040282,2009-01-04,2009-01-04,0350,2009-01-04,350.0,108.0,,,2269 TIGER FLOWERS DR NW,Morning Watch,,AGG ASSAULT,1399,Dixie Hills,J,33.76121,-84.46187
392,90040184,2009-01-04,2009-01-04,0210,2009-01-04,220.0,312.0,,,540 TUFTON TRL SE,Morning Watch,20,BURGLARY-RESIDENCE,2202,Glenrose Heights,Z,33.66497,-84.38286999999998
393,90040607,2009-01-04,2009-01-03,2000,2009-01-04,1000.0,301.0,,,751 PEARCE ST SW,Day Watch,20,BURGLARY-RESIDENCE,2202,Adair Park,V,33.72956,-84.4123
394,90040745,2009-01-04,2008-12-27,1700,2009-01-04,1200.0,414.0,,,3687 LARGO LN SW,Day Watch,20,BURGLARY-RESIDENCE,2202,Tampa Park,P,33.67989,-84.50928
395,90040777,2009-01-04,2009-01-03,2040,2009-01-04,1200.0,304.0,,,945 MARTIN ST,Day Watch,20,BURGLARY-RESIDENCE,2202,Peoplestown,V,33.72869,-84.3835
396,90040842,2009-01-04,2009-01-03,1500,2009-01-04,1100.0,307.0,,,1854 SHADYDALE AVE SE;,Day Watch,20,BURGLARY-RESIDENCE,2202,Lakewood Heights,Y,33.70352,-84.38489
397,90040893,2009-01-04,2009-01-04,1410,2009-01-04,1415.0,0.0,,,2806 RIDGEVIEW DR SW,Day Watch,20,BURGLARY-RESIDENCE,2202,Greenbriar,,33.66904,-84.49203
398,90040901,2009-01-04,2008-12-28,0600,2008-12-31,1900.0,113.0,,,1658 MALDO DR NW,Evening Watch,20,BURGLARY-RESIDENCE,2202,Lincoln Homes,G,33.801,-84.48166999999998
399,90040906,2009-01-04,2008-12-31,0700,2009-01-04,1330.0,207.0,,2517,40 PEACHTREE VALLEY RD NE,Day Watch,26,BURGLARY-RESIDENCE,2202,,E,33.81096,-84.39145
400,90040978,2009-01-04,2009-01-04,1400,2009-01-04,1500.0,310.0,,,2565 LOIS LN SE,Evening Watch,20,BURGLARY-RESIDENCE,2202,Browns Mill Park,Z,33.68431,-84.38798
401,90041013,2009-01-04,2009-01-03,0245,2009-01-03,600.0,512.0,,,167 PEACHTREE ST,Morning Watch,20,BURGLARY-RESIDENCE,2202,Downtown,M,33.75027,-84.39389
402,90041020,2009-01-04,2009-01-04,1430,2009-01-04,1600.0,403.0,,,1264 LOCKWOOD DR SW,Evening Watch,20,BURGLARY-RESIDENCE,2202,Venetian Hills,S,33.72072,-84.43844
403,90041092,2009-01-04,2009-01-04,1630,2009-01-04,1641.0,308.0,,148,1180 HENRY THOMAS DR SE,Evening Watch,26,BURGLARY-RESIDENCE,2202,Thomasville Heights,Z,33.70597,-84.3508
404,90041105,2009-01-04,2009-01-03,0800,2009-01-04,1630.0,104.0,,,1015 PARSONS ST SW,Evening Watch,20,BURGLARY-RESIDENCE,2202,Ashview Heights,T,33.75127,-84.42118999999998
405,90041110,2009-01-04,2008-12-29,1500,2009-01-04,1655.0,414.0,,6010,3725 PRINCETON LAKES PKWY SW,Morning Watch,26,BURGLARY-RESIDENCE,2202,Princeton Lakes,P,33.65769,-84.50852999999998
406,90041190,2009-01-04,2007-12-18,1800,2009-01-04,1800.0,114.0,,,810 BOLTON PL NW,Evening Watch,20,BURGLARY-RESIDENCE,2202,Carroll Heights,H,33.77784,-84.50278
407,90041235,2009-01-04,2009-01-03,0830,2009-01-04,1830.0,307.0,,,126 ADAIR AVE SE,Evening Watch,20,BURGLARY-RESIDENCE,2202,Lakewood Heights,Y,33.70639,-84.38405
408,90041319,2009-01-04,2008-11-03,0001,2009-01-04,1400.0,301.0,,,994 DILL AVE SW,Evening Watch,20,BURGLARY-RESIDENCE,2202,Capitol View,X,33.71809,-84.42073999999998
409,90041376,2009-01-04,2008-12-31,0800,2009-01-04,1845.0,206.0,,,314 BRENTWOOD DR NE,Day Watch,20,BURGLARY-RESIDENCE,2202,Garden Hills,B,33.83073,-84.3777
410,90041414,2009-01-04,2009-01-03,1700,2009-01-04,2100.0,105.0,,,962 DESOTO ST NW,Evening Watch,20,BURGLARY-RESIDENCE,2202,Washington Park,K,33.75723,-84.41905
411,90041446,2009-01-04,2009-01-04,1900,2009-01-04,2100.0,612.0,,,918 HILBURN DR SE,Morning Watch,20,BURGLARY-RESIDENCE,2202,East Atlanta,W,33.72915,-84.32657
412,90041461,2009-01-04,2009-01-04,2118,2009-01-04,2118.0,409.0,,,1752 DEVON DR SW,Morning Watch,20,BURGLARY-RESIDENCE,2202,Southwest,R,33.70841,-84.48314999999998
413,90041482,2009-01-04,2009-01-04,2125,2009-01-04,2130.0,612.0,,,1568 MCPHERSON AVE SE,Evening Watch,20,BURGLARY-RESIDENCE,2202,East Atlanta,W,33.74417,-84.33649
414,90041612,2009-01-04,2009-01-04,2000,2009-01-04,2350.0,302.0,,311,1093 WEST AVE SW,Morning Watch,20,BURGLARY-RESIDENCE,2202,Pittsburgh,V,33.72494,-84.39593
415,90040828,2009-01-04,2009-01-04,1315,2009-01-04,1320.0,603.0,,,669 BOULEVARD NE,Day Watch,21,AGG ASSAULT,1315,Old Fourth Ward,M,33.77274,-84.37099
416,90041416,2009-01-04,2009-01-04,1400,2009-01-04,1430.0,512.0,,,254 PEACHTREE ST SW,Evening Watch,11,AGG ASSAULT,1315,Downtown,M,33.74816,-84.39458999999998
417,90041599,2009-01-04,2009-01-04,2215,2009-01-04,2215.0,507.0,,,MITCHELL ST SW / SPRING ST SW,Morning Watch,13,AGG ASSAULT,1315,Downtown,M,33.75239,-84.39566
418,90031058,2009-01-04,2009-01-03,1500,2009-01-03,1600.0,311.0,L,5,2950 SPRINGDALE RD,Evening Watch,26,AGG ASSAULT,1315,Hammond Park,X,33.67479,-84.41619
419,90041128,2009-01-04,2009-01-04,1730,2009-01-04,1745.0,308.0,,228,620 NEW TOWN CIR SE,Evening Watch,26,AGG ASSAULT,1315K,Thomasville Heights,Z,33.7066,-84.36403
420,90041214,2009-01-04,2009-01-04,1800,2009-01-04,1816.0,302.0,,,1050 HUGO ST SW,Evening Watch,20,AGG ASSAULT,1315K,Pittsburgh,V,33.72607,-84.39736999999998
421,90041272,2009-01-04,2009-01-04,1830,2009-01-04,1845.0,413.0,,,3991 BLANTON AVE SW,Evening Watch,20,AGG ASSAULT,1315K,Fairburn,P,33.69097,-84.51905999999998
422,90040229,2009-01-04,2009-01-04,0200,2009-01-04,256.0,302.0,,,I-75/85SB / UNIVERSITY AVE,Morning Watch,13,AGG ASSAULT,1314,Pittsburgh,V,33.72201,-84.39588
423,90041214,2009-01-04,2009-01-04,1800,2009-01-04,1816.0,302.0,,,1050 HUGO ST SW,Evening Watch,20,AGG ASSAULT,1318,Pittsburgh,V,33.72607,-84.39736999999998
424,90041535,2009-01-04,2009-01-04,2230,2009-01-04,2234.0,603.0,,,605 BOULEVARD,Evening Watch,13,AGG ASSAULT,1314,Old Fourth Ward,M,33.77097,-84.37139999999998
425,90041566,2009-01-04,2009-01-04,2314,2009-01-04,2314.0,204.0,,92,1505 CHATTAHOOCHEE AVE NW,Morning Watch,20,AGG ASSAULT,1314,Bolton,D,33.81015,-84.43716999999998
426,90040004,2009-01-04,2009-01-03,2345,2009-01-03,2359.0,309.0,,33,2585 BEELER DR SW,Morning Watch,26,ROBBERY-RESIDENCE,1207,Perkerson,X,33.6841,-84.4012
427,90040287,2009-01-04,2009-01-04,0340,2009-01-04,400.0,103.0,,,1266 VAN ALLEN MEWS NW,Morning Watch,20,ROBBERY-RESIDENCE,1207,Blandtown,D,33.79127,-84.42915
428,90040617,2009-01-04,2009-01-03,1035,2009-01-04,1100.0,212.0,,,2095 LIDDELL DRIVE,Day Watch,18,HOMICIDE,0911,Morningside/Lenox Park,F,33.81225,-84.36202
429,90031797,2009-01-04,2009-01-03,2335,2009-01-03,2345.0,111.0,,H,3083 MARTIN LUTHER KING JR DRIVE,Morning Watch,18,ROBBERY-PEDESTRIAN,1204,Harland Terrace,I,33.75178,-84.48802999999998
430,90040023,2009-01-04,2009-01-04,0006,2009-01-04,15.0,506.0,,1321,370 NORTHSIDE DR NW,Morning Watch,13,ROBBERY-PEDESTRIAN,1204,English Avenue,L,33.76507,-84.4042
431,90040155,2009-01-04,2009-01-03,2200,2009-01-03,2210.0,107.0,,,365 LANIER ST NW,Evening Watch,13,ROBBERY-PEDESTRIAN,1204,Grove Park,J,33.76505,-84.43936999999998
432,90040178,2009-01-04,2009-01-04,0200,2009-01-04,210.0,505.0,,,4TH ST NE / PENN AVE NE,Morning Watch,13,ROBBERY-PEDESTRIAN,1204,Midtown,E,33.77454,-84.37885
433,90040187,2009-01-04,2009-01-04,0200,2009-01-04,219.0,505.0,,,7TH ST NE / MYRTLE ST NE,Morning Watch,13,ROBBERY-PEDESTRIAN,1204,Midtown,E,33.77823,-84.37971
434,90041325,2009-01-04,2009-01-04,1930,2009-01-04,1950.0,306.0,,,1712 EVANS DR SW,Evening Watch,18,ROBBERY-PEDESTRIAN,1204,Sylvan Hills,X,33.70832,-84.42349
435,90041359,2009-01-04,2009-01-04,1955,2009-01-04,2155.0,307.0,,1104,250 AMAL DR SW,Evening Watch,26,ROBBERY-PEDESTRIAN,1204,Betmar LaVilla,Y,33.70588,-84.39604
436,90041584,2009-01-04,2009-01-04,2300,2009-01-04,2330.0,104.0,,,1720 MARTIN L KING JR DR SW,Morning Watch,13,ROBBERY-PEDESTRIAN,1204,Mozley Park,K,33.75083,-84.44341
437,90040538,2009-01-04,2009-01-04,0945,2009-01-04,949.0,107.0,,,674 EMILY PL NW,Day Watch,20,ROBBERY-RESIDENCE,1209,Grove Park,J,33.77339,-84.45252
438,90041624,2009-01-04,2009-01-04,2345,2009-01-04,2359.0,304.0,,,562 FRASER ST SE,Morning Watch,20,ROBBERY-PEDESTRIAN,1206,Summerhill,V,33.73902,-84.38608
439,90041340,2009-01-04,2009-01-04,1700,2009-01-04,1945.0,308.0,,,1947 LATHROP ST SE,Evening Watch,20,AUTO THEFT,2434,Thomasville Heights,Z,33.70161,-84.35979
440,90040088,2009-01-04,2009-01-04,0045,2009-01-04,50.0,107.0,,,1753 DETROIT AVE NW,Morning Watch,20,AUTO THEFT,2424,Grove Park,J,33.76737,-84.44454
441,90040929,2009-01-04,2009-01-03,2100,2009-01-04,1500.0,306.0,,,1765 METROPOLITAN PKWY SW,Evening Watch,12,AUTO THEFT,2424,Sylvan Hills,X,33.70546,-84.40814
442,90041615,2009-01-04,2009-01-04,2200,2009-01-04,2345.0,104.0,,,117 STAFFORD ST SW,Morning Watch,20,AUTO THEFT,2424,Mozley Park,K,33.75193,-84.42729
443,90040183,2009-01-04,2009-01-04,0210,2009-01-04,213.0,408.0,,,1746 CENTRA VILLA DR SW,Morning Watch,20,AUTO THEFT,2404,Venetian Hills,S,33.70833,-84.45525999999998
444,90040577,2009-01-04,2009-01-04,0800,2009-01-04,1030.0,201.0,,44,2788 DEFOORS FERRY RD NW,Day Watch,18,AUTO THEFT,2404A,,C,33.82114,-84.44713
445,90040639,2009-01-04,2008-12-31,2300,2009-01-04,1130.0,604.0,,,375 RALPH MCGILL BLVD NE,Day Watch,13,AUTO THEFT,2404,Old Fourth Ward,M,33.76368,-84.37587
446,90041048,2009-01-04,2009-01-03,1100,2009-01-04,300.0,105.0,,,1086 HARWELL ST NW,Evening Watch,20,AUTO THEFT,2404A,Washington Park,K,33.7556,-84.42337
447,90041440,2009-01-04,2009-01-04,2100,2009-01-04,2105.0,607.0,,,1130 MORELAND AVE SE,Evening Watch,21,ROBBERY-PEDESTRIAN,1299G,East Atlanta,W,33.7235,-84.34892999999998
448,90031809,2009-01-04,2009-01-03,2200,2009-01-04,45.0,604.0,,,303 PARKWAY DR NE,Morning Watch,28,LARCENY-NON VEHICLE,2308,Old Fourth Ward,M,33.76286,-84.37404999999998
449,90040286,2009-01-04,2009-01-03,1253,2009-01-04,403.0,504.0,,,582 LOVEJOY ST NW,Morning Watch,20,LARCENY-NON VEHICLE,2308,Downtown,M,33.76753,-84.39315
450,90040311,2009-01-04,2009-01-04,0438,2009-01-04,445.0,408.0,,,1999 CAMPBELLTON RD SW,Morning Watch,99,LARCENY-NON VEHICLE,2308,Venetian Hills,S,33.70799,-84.45455
451,90041176,2009-01-04,2009-01-02,2100,2009-01-02,2145.0,501.0,,,1380 ATLANTIC DR,Evening Watch,8,LARCENY-NON VEHICLE,2308,Atlantic Station,E,33.79243,-84.39646999999998
452,90040732,2009-01-04,2009-01-03,0015,2009-01-04,245.0,503.0,,,WEST PEACHTREE @13TH,Day Watch,18,LARCENY-FROM VEHICLE,2304,Midtown,E,33.78572,-84.38782
453,90040816,2009-01-04,2009-01-03,2230,2009-01-04,1315.0,608.0,,,1327 EUCLID AVE NE,Day Watch,13,LARCENY-FROM VEHICLE,2304,Candler Park,N,33.76851,-84.34430999999998
454,90040860,2009-01-04,2009-01-04,0500,2009-01-04,1200.0,611.0,,,1427 FOREST LAKES AVE SE,Day Watch,18,LARCENY-FROM VEHICLE,2304,The Villages at East Lake,O,33.74403,-84.31243999999998
455,90041114,2009-01-04,2009-01-04,0255,2009-01-04,600.0,305.0,,,117 BOWEN CIRCLE,Evening Watch,20,LARCENY-FROM VEHICLE,2304,High Point,Y,33.71613,-84.39489
456,90041155,2009-01-04,2009-01-04,0800,2009-01-04,1700.0,510.0,,,COCA COLA @ PRATT,Evening Watch,13,LARCENY-FROM VEHICLE,2304,Downtown,M,33.75168,-84.38198
457,90041381,2009-01-04,2009-01-04,1730,2009-01-04,2021.0,306.0,,,1959 METROPOLITAN PKWY SW,Evening Watch,18,LARCENY-FROM VEHICLE,2304,Sylvan Hills,X,33.7008,-84.41017999999998
458,90040076,2009-01-04,2009-01-04,0000,2009-01-04,30.0,211.0,,,2285 PEACHTREE RD NE,Morning Watch,21,LARCENY-FROM VEHICLE,2305,,E,33.81637,-84.38953999999998
459,90040102,2009-01-04,2009-01-03,1010,2009-01-04,100.0,504.0,,,600 MEANS ST NW,Morning Watch,18,LARCENY-FROM VEHICLE,2305,Marietta Street Artery,E,33.77451,-84.40730999999998
460,90040164,2009-01-04,2009-01-04,0145,2009-01-04,145.0,109.0,,,709 CHURCH ST,Morning Watch,13,LARCENY-FROM VEHICLE,2305,Center Hill,J,33.77444,-84.46727
461,90040246,2009-01-04,2009-01-03,1500,2009-01-04,300.0,113.0,APT,121,1212 JAMES JACKSON PKWY NW,Morning Watch,18,LARCENY-FROM VEHICLE,2305,Monroe Heights,G,33.79333,-84.47416
462,90040364,2009-01-04,2009-01-03,2100,2009-01-04,629.0,409.0,,,1635 CENTRA VILLA DR SW,Day Watch,20,LARCENY-FROM VEHICLE,2305,Adams Park,R,33.71111,-84.45516999999998
463,90040441,2009-01-04,2009-01-03,2200,2009-01-04,825.0,404.0,,,1956 WESTWOOD AVE SW,Day Watch,13,LARCENY-FROM VEHICLE,2305,Westwood Terrace,I,33.73862,-84.45192
464,90040459,2009-01-04,2008-12-12,1830,2009-01-04,837.0,502.0,,,1270 W PEACHTREE ST NW,Day Watch,18,LARCENY-FROM VEHICLE,2305,Midtown,E,33.7892,-84.38789
465,90040580,2009-01-04,2009-01-03,1900,2009-01-04,1033.0,210.0,,C309,3200 LENOX RD NE,Day Watch,18,LARCENY-FROM VEHICLE,2305,Pine Hills,B,33.84221,-84.35822
466,90040704,2009-01-04,2009-01-04,0130,2009-01-04,1300.0,507.0,,201,170 NORTHSIDE DR SW,Day Watch,13,LARCENY-FROM VEHICLE,2305,Castleberry Hill,M,33.7499,-84.40371
467,90040886,2009-01-04,2009-01-04,1150,2009-01-04,1400.0,508.0,,,WALTON ST NW / CONE ST NW,Day Watch,13,LARCENY-FROM VEHICLE,2305,Downtown,M,33.75698,-84.39136
468,90040976,2009-01-04,2008-12-18,1200,2009-01-04,1000.0,505.0,,2215,116 PONCE DE LEON AVE NE,Evening Watch,18,LARCENY-FROM VEHICLE,2305,Midtown,E,33.77248,-84.38382
469,90041018,2009-01-04,2009-01-03,1500,2009-01-03,1700.0,210.0,,,3393 PEACHTREE RD NE,Evening Watch,13,LARCENY-FROM VEHICLE,2305,Lenox,B,33.84676,-84.36212
470,90041079,2009-01-04,2009-01-04,0430,2009-01-04,1500.0,312.0,,,3385 HAMILTON BLVD SE,Day Watch,13,LARCENY-FROM VEHICLE,2305,Glenrose Heights,Z,33.66224,-84.38691
471,90041183,2009-01-04,2009-01-04,1700,2009-01-04,1705.0,505.0,,,W PEACHTREE ST NE / PONCE DE LEON AVE NE,Evening Watch,13,LARCENY-FROM VEHICLE,2305,Midtown,E,33.77229,-84.38735
472,90041279,2009-01-04,2009-01-04,1700,2009-01-04,1900.0,509.0,,,HARRIS ST NE / PEACHTREE CENTER AVE NE,Evening Watch,18,LARCENY-FROM VEHICLE,2305,Downtown,M,33.76097,-84.38603999999998
473,90041450,2009-01-04,2009-01-04,1930,2009-01-04,2100.0,603.0,,,400 MERRITTS AVE NE,Evening Watch,13,LARCENY-FROM VEHICLE,2305,Old Fourth Ward,M,33.76901,-84.37444
474,90041492,2009-01-04,2009-01-04,1915,2009-01-04,2147.0,608.0,,,1630 DEKALB AVE NE,Evening Watch,13,LARCENY-FROM VEHICLE,2305,Candler Park,N,33.7625,-84.33426
475,90040686,2009-01-04,2009-01-04,1141,2009-01-04,1143.0,208.0,,,3232 PEACHTREE RD NE,Day Watch,8,LARCENY-NON VEHICLE,2303,Buckhead Forest,B,33.84413,-84.37408999999998
476,90041006,2009-01-04,2009-01-04,1540,2009-01-04,1600.0,602.0,,,428 MORELAND AVE NE;,Evening Watch,24,LARCENY-NON VEHICLE,2303,Inman Park,N,33.76614,-84.34917
477,90041170,2009-01-04,2009-01-04,1655,2009-01-04,1735.0,211.0,,,2539 PIEDMONT RD NE,Evening Watch,8,LARCENY-NON VEHICLE,2303,Lindbergh/Morosgo,B,33.82403,-84.36328
478,90041565,2009-01-04,2009-01-04,2310,2009-01-04,2314.0,311.0,,,2685 METROPOLITAN PKWY SW,Morning Watch,12,LARCENY-NON VEHICLE,2303,Hammond Park,X,33.67647,-84.4086
479,90050905,2009-01-05,2009-01-05,1250,2009-01-05,1258.0,603.0,,,595 PIEDMONT AVE NE,Day Watch,12,LARCENY-NON VEHICLE,2303,Old Fourth Ward,M,33.77067,-84.38022999999998
480,90051018,2009-01-05,2009-01-05,1408,2009-01-05,1408.0,210.0,,,3535 PEACHTREE RD NE,Evening Watch,8,LARCENY-NON VEHICLE,2303,Lenox,B,33.85182,-84.35949999999998
481,90051427,2009-01-05,2009-01-05,1700,2009-01-05,1730.0,304.0,,,1162 PRYOR ST,Evening Watch,24,LARCENY-NON VEHICLE,2303,Peoplestown,V,33.72327,-84.39322
482,90051502,2009-01-05,2009-01-05,1805,2009-01-05,1805.0,210.0,,,3393 PEACHTREE RD NE @LENOX MALL,Evening Watch,11,LARCENY-NON VEHICLE,2303,Lenox,B,33.84676,-84.36212
483,90050364,2009-01-05,2009-01-04,1400,2009-01-05,755.0,310.0,,,59 MOBLEY DR SE,Day Watch,13,LARCENY-FROM VEHICLE,2305,Browns Mill Park,Z,33.68615,-84.38679999999998
484,90050387,2009-01-05,2008-01-04,2200,2008-01-05,800.0,202.0,,,3364 KNOLLWOOD DR NW,Day Watch,20,LARCENY-FROM VEHICLE,2305,Tuxedo Park,A,33.84682,-84.39593999999998
485,90050429,2009-01-05,2009-01-04,2000,2009-01-05,829.0,610.0,,,2063 DELANO DR NE,Day Watch,13,LARCENY-FROM VEHICLE,2305,Kirkwood,O,33.75505,-84.32000999999998
486,90050459,2009-01-05,2009-01-05,0200,2009-01-05,845.0,610.0,,,30 LAKEVIEW DR NE,Day Watch,13,LARCENY-FROM VEHICLE,2305,Kirkwood,O,33.7522,-84.31395
487,90050600,2009-01-05,2009-01-04,2200,2009-01-05,1000.0,608.0,,A-1,913 BRIARCLIFF RD NE,Day Watch,18,LARCENY-FROM VEHICLE,2305,Druid Hills,N,33.77914,-84.34439999999998
488,90050663,2009-01-05,2009-01-05,0915,2009-01-05,1000.0,502.0,,,INWOOD CIR / WEST PEACHTREE STREET,Day Watch,13,LARCENY-FROM VEHICLE,2305,Midtown,E,33.79858,-84.38771
489,90050732,2009-01-05,2009-01-04,2200,2009-01-05,1100.0,611.0,,,197 3RD AVE SE,Unknown,13,LARCENY-FROM VEHICLE,2305,East Lake,O,33.74754,-84.30867
490,90050755,2009-01-05,2009-01-01,2000,2009-01-05,1150.0,207.0,,,1466 PINE ST NW,Unknown,20,LARCENY-FROM VEHICLE,2305,Loring Heights,E,33.7952,-84.40121
491,90050873,2009-01-05,2009-01-05,1150,2009-01-05,1225.0,604.0,,,HIGHLAND AVE / SAMPSON ST,Day Watch,13,LARCENY-FROM VEHICLE,2305,Old Fourth Ward,M,33.76235,-84.37731999999998
492,90050879,2009-01-05,2009-01-04,1800,2009-01-05,1300.0,106.0,,,1096 TILDEN ST,Day Watch,99,LARCENY-FROM VEHICLE,2305,Knight Park/Howell Station,K,33.7849,-84.42521999999998
493,90050980,2009-01-05,2008-12-20,1300,2009-01-05,1300.0,211.0,,,829 PEACHTREE HILLS CIR NE,Evening Watch,18,LARCENY-FROM VEHICLE,2305,Peachtree Hills,B,33.81954,-84.37498999999998
494,90051125,2009-01-05,2008-12-31,1200,2009-01-04,1200.0,502.0,,,56 AVERY DR NE;,Evening Watch,13,LARCENY-FROM VEHICLE,2305,Ansley Park,E,33.79532,-84.37263
495,90051142,2009-01-05,2009-01-02,1400,2009-01-02,1900.0,409.0,,,2930 CASCADE RD SW,Evening Watch,24,LARCENY-FROM VEHICLE,2305,Cascade Heights,I,33.71975,-84.48354
496,90051181,2009-01-05,2009-01-04,0001,2009-01-05,1500.0,608.0,,,OAKDALE RD NE / MARION AVE NE,Evening Watch,13,LARCENY-FROM VEHICLE,2305,Candler Park,N,33.76726,-84.34171
497,90051380,2009-01-05,2009-01-05,1555,2009-01-05,1710.0,603.0,,,575 PONCE DE LEON AVE NE,Evening Watch,23,LARCENY-FROM VEHICLE,2305,Old Fourth Ward,M,33.77313,-84.36817999999998
498,90051389,2009-01-05,2009-01-05,1700,2009-01-05,1730.0,208.0,,,3500 PEACHTREE RD NE,Evening Watch,11,LARCENY-FROM VEHICLE,2305,North Buckhead,B,33.85302,-84.36278
499,90051407,2009-01-05,2009-01-05,0900,2009-01-05,1530.0,208.0,,,3300 PEACHTREE RD NE,Day Watch,18,LARCENY-FROM VEHICLE,2305,North Buckhead,B,33.84514,-84.37031
500,90051475,2009-01-05,2009-01-05,0900,2009-01-05,1730.0,208.0,,630,3400 PEACHTREE RD NE,Day Watch,18,LARCENY-FROM VEHICLE,2305,North Buckhead,B,33.84938,-84.3636
501,90051557,2009-01-05,2009-01-05,1850,2009-01-05,1855.0,502.0,,,LAFAYETTE DR @ PEACHTREE CIR NE,Evening Watch,13,LARCENY-FROM VEHICLE,2305,Ansley Park,E,33.79172,-84.38330999999998
502,90051668,2009-01-05,2009-01-05,1400,2009-01-05,2000.0,210.0,,1205,1001 GARDEN VIEW DR NE,Evening Watch,18,LARCENY-FROM VEHICLE,2305,Pine Hills,B,33.84895,-84.34904
503,90051728,2009-01-05,2009-01-05,2015,2009-01-05,2040.0,303.0,,,187 ORMOND ST SW,Evening Watch,13,LARCENY-FROM VEHICLE,2305,Mechanicsville,V,33.73187,-84.39418999999998
504,90051787,2009-01-05,2009-01-05,2015,2009-01-05,2130.0,502.0,,,12TH ST NE / PIEDMONT AVE NE,Evening Watch,13,LARCENY-FROM VEHICLE,2305,Midtown,E,33.78331,-84.37958
505,90051844,2009-01-05,2009-01-05,2000,2009-01-05,2200.0,601.0,,,1034 MARYLAND AVE,Unknown,13,LARCENY-FROM VEHICLE,2305,Virginia Highland,F,33.7822,-84.35689999999998
506,90051845,2009-01-05,2009-01-05,1930,2009-01-05,2200.0,505.0,,,860 PEACHTREE ST NE,Morning Watch,18,LARCENY-FROM VEHICLE,2305,Midtown,E,33.77831,-84.38532999999998
507,90051848,2009-01-05,2009-01-05,1730,2009-01-05,2230.0,510.0,,,35 JESSE HILL JR DR SE,Morning Watch,18,LARCENY-FROM VEHICLE,2305,Downtown,M,33.75357,-84.3818
508,90050294,2009-01-05,2009-01-04,1800,2009-01-05,700.0,604.0,,,375 AUBURN AVENUE,Day Watch,18,LARCENY-FROM VEHICLE,2304,Sweet Auburn,M,33.7554,-84.37520999999998
509,90050414,2009-01-05,2008-12-31,2200,2009-01-05,900.0,612.0,,,491 FLAT SHOALS AVE SE,Morning Watch,18,LARCENY-FROM VEHICLE,2304,East Atlanta,W,33.74053,-84.34619999999998
510,90050445,2009-01-05,2009-01-04,2100,2009-01-05,838.0,312.0,,176,85 MOUNT ZION RD SE,Day Watch,18,LARCENY-FROM VEHICLE,2304,Glenrose Heights,Z,33.67269,-84.38678
511,90050503,2009-01-05,2009-01-03,1800,2009-01-05,900.0,610.0,,,269 LAMON AVE SE,Day Watch,13,LARCENY-FROM VEHICLE,2304,Kirkwood,O,33.74604,-84.33883
512,90050521,2009-01-05,2008-12-20,1700,2009-01-05,900.0,212.0,,,2535 CHANTILLY DR NE,Day Watch,18,LARCENY-FROM VEHICLE,2304,Lindridge/Martin Manor,F,33.82363,-84.34977
513,90050573,2009-01-05,2009-01-03,1500,2009-01-05,800.0,204.0,,,2316 DEFOOR HILLS RD NW,Day Watch,18,LARCENY-FROM VEHICLE,2304,Underwood Hills,D,33.81823,-84.43609999999998
514,90050776,2009-01-05,2009-01-02,1700,2009-01-05,800.0,103.0,,,1901 MACARTHUR BLVD NW,Day Watch,18,LARCENY-FROM VEHICLE,2304,Bolton,D,33.81336,-84.44972
515,90050969,2009-01-05,2009-01-05,1000,2009-01-05,1000.0,301.0,,,731 CATHERINE ST SW,Day Watch,13,LARCENY-FROM VEHICLE,2304,Adair Park,V,33.7261,-84.41153
516,90050985,2009-01-05,2009-01-05,1316,2009-01-05,1350.0,509.0,,,662 W PEACHTREE ST,Day Watch,18,LARCENY-FROM VEHICLE,2304,Downtown,M,33.77119,-84.38476
517,90051326,2009-01-05,2009-01-04,2200,2009-01-05,1700.0,612.0,,,771 CLIFTON RD SE,Unknown,20,LARCENY-FROM VEHICLE,2304,East Atlanta,W,33.73319,-84.33032
518,90051351,2009-01-05,2009-01-05,0830,2009-01-05,1630.0,501.0,,,16TH ST @ ATLANTIC,Evening Watch,13,LARCENY-FROM VEHICLE,2304,Home Park,E,33.79,-84.39763999999998
519,90051395,2009-01-05,2009-01-05,0900,2009-01-05,1730.0,210.0,,,3475 LENOX RD NE,Evening Watch,18,LARCENY-FROM VEHICLE,2304,Lenox,B,33.84922,-84.36056
520,90051414,2009-01-05,2009-01-05,0800,2009-01-05,1700.0,208.0,,,3343 PEACHTREE RD NE,Evening Watch,18,LARCENY-FROM VEHICLE,2304,Lenox,B,33.84748,-84.36736999999998
521,90051723,2009-01-05,2009-01-05,1300,2009-01-05,2045.0,508.0,,,SPRING ST NW / BAKER ST NW,Evening Watch,18,LARCENY-FROM VEHICLE,2304,Downtown,M,33.76226,-84.38902
522,90050383,2009-01-05,2009-01-03,1300,2009-01-03,1400.0,602.0,,,725 PONCE DE LEON AVE NE,Day Watch,12,LARCENY-NON VEHICLE,2308,Poncey-Highland,N,33.77343,-84.36351
523,90050574,2009-01-05,2009-01-02,1600,2009-01-05,800.0,603.0,,315,285 BOULEVARD,Day Watch,5,LARCENY-NON VEHICLE,2308,Old Fourth Ward,M,33.76216,-84.37188999999998
524,90050770,2009-01-05,2008-12-30,1200,2009-01-01,1200.0,610.0,,,288 LELAND TER NE,Day Watch,20,LARCENY-NON VEHICLE,2308,Kirkwood,O,33.76136,-84.31385
525,90050860,2009-01-05,2009-01-02,1300,2009-01-05,1300.0,309.0,,,2685 METROPOLITAN PKWY SW,Unknown,,LARCENY-NON VEHICLE,2308,Perkerson,X,33.68274,-84.40902
526,90050903,2009-01-05,2009-01-05,1000,2009-01-05,1130.0,205.0,,,2875 NORTHSIDE DR NW,Day Watch,35,LARCENY-NON VEHICLE,2308,Wyngate,C,33.83247,-84.40639
527,90050922,2009-01-05,2009-01-01,1400,2009-01-01,1400.0,501.0,,1140,261 19TH ST NW,Day Watch,99,LARCENY-NON VEHICLE,2308,Atlantic Station,E,33.79352,-84.39693
528,90050908,2009-01-05,2008-05-01,1200,2008-09-01,1200.0,606.0,,,1008 MANIGAULT ST SE,Day Watch,20,LARCENY-NON VEHICLE,2317,Reynoldstown,N,33.75114,-84.35411999999998
529,90051079,2009-01-05,2008-12-31,1600,2009-01-01,1000.0,509.0,,,550 PEACHTREE ST NE,Day Watch,28,LARCENY-NON VEHICLE,2308,Downtown,M,33.76929,-84.38554
530,90051143,2009-01-05,2008-12-23,1400,2008-12-28,900.0,511.0,,250,104 MARIETTA ST NW,Evening Watch,99,LARCENY-NON VEHICLE,2308,Downtown,M,33.7566,-84.39242
531,90051484,2009-01-05,2009-01-05,1815,2009-01-05,1820.0,606.0,,,142 FLAT SHOALS AVE SE,Unknown,21,LARCENY-NON VEHICLE,2308,Reynoldstown,N,33.74893,-84.35299
532,90051517,2009-01-05,2009-01-05,1800,2009-01-05,1800.0,107.0,,,2045 DONALD LEE HOLLOWELL PKWY NW,Evening Watch,7,LARCENY-NON VEHICLE,2308,Grove Park,J,33.7774,-84.45214
533,90050229,2009-01-05,2009-01-05,0430,2009-01-05,445.0,512.0,,,232 FORSYTH ST SW,Morning Watch,1,LARCENY-NON VEHICLE,2399,Downtown,M,33.74852,-84.39636
534,90050236,2009-01-05,2009-01-05,0300,2009-01-05,330.0,603.0,APT,1208,220 RENAISSANCE PKWY NE,Day Watch,20,LARCENY-NON VEHICLE,2399,Old Fourth Ward,M,33.7691,-84.38026999999998
535,90050682,2009-01-05,2009-01-05,1200,2009-01-05,1200.0,110.0,,,1688 ABNER CT,Day Watch,99,LARCENY-NON VEHICLE,2399,Carver Hills,G,33.80168,-84.46644999999998
536,90050795,2009-01-05,2008-01-04,2100,2009-01-05,930.0,410.0,,LEASI,1994 BENT CREEK WAY SW,Day Watch,26,LARCENY-NON VEHICLE,2399,Campbellton Road,R,33.7011,-84.46630999999998
537,90050899,2009-01-05,2009-01-05,1200,2009-01-05,1254.0,409.0,,,1611 MILL ACRES DR SW,Day Watch,20,LARCENY-NON VEHICLE,2399,Cascade Heights,I,33.71227,-84.47041
538,90050957,2009-01-05,2009-01-03,1800,2009-01-05,1300.0,403.0,,,1673 KENMORE ST SW,Day Watch,20,LARCENY-NON VEHICLE,2399,Cascade Avenue/Road,S,33.72649,-84.44269
539,90050972,2009-01-05,2009-01-05,1330,2009-01-05,1330.0,511.0,,,50 ALABAMA ST,Day Watch,8,LARCENY-NON VEHICLE,2399,Downtown,M,33.75317,-84.39127999999998
540,90051049,2009-01-05,2009-01-05,1426,2009-01-05,1430.0,509.0,,,255 COURTLAND ST NE,Day Watch,14,LARCENY-NON VEHICLE,2399,Downtown,M,33.76157,-84.38313999999998
541,90051073,2009-01-05,2009-01-05,1440,2009-01-05,1440.0,405.0,,113,113 PEYTON PL SW,Evening Watch,,LARCENY-NON VEHICLE,2399,Harland Terrace,I,33.75102,-84.47615
542,90051116,2009-01-05,2008-12-31,2030,2008-12-31,2100.0,202.0,,,1284 W PACES FERRY RD NW,Day Watch,21,LARCENY-NON VEHICLE,2399,West Paces Ferry/Northside,A,33.84876,-84.42950999999998
543,90051132,2009-01-05,2009-01-02,1100,2009-01-02,1900.0,613.0,,,1537 N HIGHLAND AVE NE,Evening Watch,20,LARCENY-NON VEHICLE,2399,Morningside/Lenox Park,F,33.79654,-84.34973999999998
544,90051169,2009-01-05,2009-01-05,1530,2009-01-05,1533.0,111.0,,,68 LINKWOOD RD NW,Evening Watch,18,LARCENY-NON VEHICLE,2399,,I,33.75703,-84.48298
545,90051192,2009-01-05,2008-12-31,2300,2009-01-01,300.0,112.0,,208,2861 ENGLE RD NW,Morning Watch,20,LARCENY-NON VEHICLE,2399,Collier Heights,I,33.76971,-84.48085
546,90051364,2009-01-05,2008-12-31,1800,2009-01-05,400.0,208.0,,,3343 PEACHTREE RD NE,Evening Watch,6,LARCENY-NON VEHICLE,2399,Lenox,B,33.84748,-84.36736999999998
547,90051398,2009-01-05,2009-01-05,1000,2009-01-05,1600.0,614.0,,,650 PONCE,Evening Watch,18,LARCENY-NON VEHICLE,2399,Midtown,E,33.77469,-84.36561
548,90051423,2009-01-05,2009-01-03,0600,2009-01-05,1700.0,412.0,,,2313 SANDCOVE CT SW,Evening Watch,20,LARCENY-NON VEHICLE,2399,,P,33.69992,-84.54175999999998
549,90051679,2009-01-05,2009-01-02,1100,2009-01-05,1130.0,404.0,,,1890 S GORDON ST SW,Evening Watch,20,LARCENY-NON VEHICLE,2399,Westview,T,33.73505,-84.44701999999998
550,90050271,2009-01-05,2009-01-04,2300,2009-01-05,700.0,507.0,,1201,425 CHAPEL ST SW,Day Watch,18,AUTO THEFT,2404,Castleberry Hill,M,33.75203,-84.40157999999998
551,90050404,2009-01-05,2009-01-04,2100,2009-01-05,800.0,504.0,,,525 CENTENNIAL OLYMPIC P DR NW,Day Watch,18,AUTO THEFT,2404,Downtown,M,33.76828,-84.39158999999998
552,90050418,2009-01-05,2009-01-04,2200,2009-01-05,800.0,608.0,,,1291 MCLENDON AVE NE,Day Watch,13,AUTO THEFT,2404,Candler Park,N,33.76467,-84.34524999999998
553,90050463,2009-01-05,2009-01-05,0847,2009-01-05,848.0,108.0,,,1004 HOLLYWOOD RD,Day Watch,13,AUTO THEFT,2404,Harvel Homes Community,J,33.75994,-84.46669
554,90050846,2009-01-05,2009-01-04,2000,2009-01-05,1200.0,411.0,,,3248 VERDANT DR SW,Day Watch,18,AUTO THEFT,2404,Greenbriar,R,33.68223,-84.49579
555,90051299,2009-01-05,2009-01-05,1600,2009-01-05,1635.0,412.0,,11303,1371 KIMBERLY WAY SW,Evening Watch,18,AUTO THEFT,2404,Ashley Courts,P,33.71771,-84.52315
556,90051499,2009-01-05,2009-01-05,1800,2009-01-05,1830.0,301.0,,,MURPHY AVE/ DILL AVE,Evening Watch,13,AUTO THEFT,2404,Capitol View,X,33.71821,-84.4243
557,90051515,2009-01-05,2009-01-05,1800,2009-01-05,1900.0,607.0,,,1475 MORELAND AVE SE;,Evening Watch,24,AUTO THEFT,2404,Custer/McDonough/Guice,W,33.7129,-84.35007
558,90051667,2009-01-05,2008-12-05,1600,2009-01-05,2000.0,501.0,,32,1041 STATE ST NW,Evening Watch,18,AUTO THEFT,2404A,Home Park,E,33.78306,-84.39888999999998
559,90051811,2009-01-05,2009-01-05,2130,2009-01-05,2200.0,309.0,,,2454 SPRING GARDEN DR SW,Morning Watch,20,AUTO THEFT,2404,Perkerson,X,33.68778,-84.41166
560,90050022,2009-01-05,2009-01-04,0001,2009-01-04,800.0,301.0,,,417 HILLSIDE DR SW,Morning Watch,20,AUTO THEFT,2424,Capitol View Manor,X,33.71753,-84.40121
561,90050601,2009-01-05,2009-01-03,1300,2009-01-05,900.0,605.0,,,564 WOODWARD AVE SE,Day Watch,13,AUTO THEFT,2424A,Grant Park,W,33.74571,-84.36898999999998
562,90050664,2009-01-05,2008-12-23,0200,2008-12-23,800.0,304.0,,,574 REED ST SE,Day Watch,13,AUTO THEFT,2424A,Summerhill,V,33.739,-84.38536999999998
563,90050723,2009-01-05,2009-01-04,1300,2009-01-05,855.0,604.0,,,225 SAMPSON ST NE,Day Watch,99,AUTO THEFT,2424,Old Fourth Ward,M,33.7602,-84.36544999999998
564,90050831,2009-01-05,2009-01-05,1030,2009-01-05,1200.0,412.0,,14303,1371 KIMBERLY WAY SW,Unknown,18,AUTO THEFT,2424A,Ashley Courts,P,33.71771,-84.52315
565,90051695,2009-01-05,2009-01-05,2020,2009-01-05,2024.0,201.0,,,2325 MARIETTA BLVD NW,Evening Watch,23,AUTO THEFT,2424,,C,33.82087,-84.45355
566,90050419,2009-01-05,2008-12-30,1100,2009-01-05,823.0,207.0,,119,1375 NORTHSIDE DR NW,Day Watch,14,AUTO THEFT,2434,Loring Heights,E,33.79215,-84.40774
567,90050084,2009-01-05,2009-01-05,0045,2009-01-05,115.0,512.0,,,232 FORSYTH ST SW @GREYHOUND BUS DEPOT,Morning Watch,1,ROBBERY-PEDESTRIAN,1206,Downtown,M,33.74852,-84.39636
568,90051507,2009-01-05,2009-01-05,1832,2009-01-05,1832.0,410.0,,,2178 CAMPBELLTON RD SW,Evening Watch,12,ROBBERY-COMMERCIAL,1203,Campbellton Road,R,33.70514,-84.45946999999998
569,90050263,2009-01-05,2009-01-05,0530,2009-01-05,600.0,111.0,APT,440,3086 MIDDLETON RD NW,Morning Watch,32,ROBBERY-PEDESTRIAN,1204,,I,33.7526,-84.48985999999998
570,90050292,2009-01-05,2009-01-05,0630,2009-01-05,635.0,509.0,,,607  PEACHTREE  ST  NE,Day Watch,13,ROBBERY-PEDESTRIAN,1204,Downtown,M,33.77093,-84.38491999999998
571,90050871,2009-01-05,2009-01-04,1815,2009-01-04,1840.0,506.0,,,400 LINDSAY ST NW,Day Watch,26,ROBBERY-PEDESTRIAN,1204,English Avenue,L,33.76569,-84.41659
572,90051466,2009-01-05,2009-01-05,1820,2009-01-05,1835.0,113.0,B,,2500 CENTER ST,Evening Watch,18,ROBBERY-PEDESTRIAN,1204,Carey Park,G,33.79088,-84.4723
573,90051648,2009-01-05,2009-01-05,1945,2009-01-05,1950.0,313.0,P,,900 CONLEY RD,Evening Watch,18,ROBBERY-PEDESTRIAN,1204,South River Gardens,Z,33.6484,-84.36555
574,90051754,2009-01-05,2009-01-05,2045,2009-01-05,2130.0,410.0,,,1870 HONEYSUCKLE LN SW,Evening Watch,26,ROBBERY-PEDESTRIAN,1204,Campbellton Road,R,33.70689,-84.45345
575,90051826,2009-01-05,2009-01-05,2210,2009-01-05,2220.0,614.0,,2,811 ARGONNE AVE NE,Evening Watch,13,ROBBERY-PEDESTRIAN,1204,Midtown,E,33.77658,-84.37756
576,90050002,2009-01-05,2009-01-04,2356,2009-01-05,1.0,313.0,,,3843 JONESBORO RD SE,Morning Watch,7,AGG ASSAULT,1314,South River Gardens,Z,33.65199,-84.36700999999998
577,90050145,2009-01-05,2009-01-05,0230,2009-01-05,235.0,310.0,,,2674 MACON DR SE,Morning Watch,20,AGG ASSAULT,1314,Browns Mill Park,Z,33.68162,-84.38852
578,90051913,2009-01-05,2009-01-05,2300,2009-01-05,2305.0,401.0,,,923 LEE ST SW,Morning Watch,13,AGG ASSAULT,1314,West End,T,33.72991,-84.41607
579,90050681,2009-01-05,2009-01-05,1035,2009-01-05,1040.0,609.0,,,168 WHITEFOORD AVE NE,Day Watch,20,AGG ASSAULT,1315K,Edgewood,O,33.75821,-84.34222
580,90051314,2009-01-05,2008-12-21,0200,2009-01-03,2315.0,113.0,APT,230,1206 WILKES CIR NW,Day Watch,26,AGG ASSAULT,1315K,Brookview Heights,G,33.78486,-84.47960999999998
581,90051681,2009-01-05,2009-01-05,2005,2009-01-05,2010.0,106.0,,,641 WHITAKER ST NW,Evening Watch,,AGG ASSAULT,1315K,Bankhead,K,33.7722,-84.41831
582,90050508,2009-01-05,2009-01-05,0915,2009-01-05,920.0,612.0,,,572 BROWNWOOD AVE SE,Day Watch,20,BURGLARY-RESIDENCE,2202,East Atlanta,W,33.73863,-84.3478
583,90050545,2009-01-05,2009-01-03,1200,2009-01-05,930.0,413.0,,,2530 BARGE RD SW,Morning Watch,20,BURGLARY-RESIDENCE,2202,Rue Royal,P,33.68614,-84.50618
584,90050725,2009-01-05,2009-01-05,1104,2009-01-05,1104.0,411.0,,,2894 RIDGEVIEW DR SW,Day Watch,20,BURGLARY-RESIDENCE,2202,Greenbriar,R,33.66632,-84.49338
585,90050756,2009-01-05,2009-01-05,0830,2009-01-05,1030.0,307.0,,,303 THORNTON ST SW,Day Watch,20,BURGLARY-RESIDENCE,2202,Joyland,Y,33.71198,-84.39884999999998
586,90050836,2009-01-05,2009-01-05,1210,2009-01-05,1210.0,108.0,52,A,2125 JOSEPH E BOONE BLVD NW,Day Watch,26,BURGLARY-RESIDENCE,2202,Center Hill,J,33.76479,-84.45789999999998
587,90050842,2009-01-05,2008-12-29,1215,2009-01-05,1215.0,308.0,,,1996 PHILLIPS DR SE,Day Watch,20,BURGLARY-RESIDENCE,2202,Thomasville Heights,Z,33.69935,-84.35349999999998
588,90050843,2009-01-05,2009-01-05,1225,2009-01-05,1225.0,611.0,,,1403 FOREST LAKES AVE SE,Day Watch,20,BURGLARY-RESIDENCE,2202,The Villages at East Lake,O,33.74403,-84.31243999999998
589,90051026,2009-01-05,2009-01-05,1000,2009-01-05,1400.0,114.0,,371,3405 MAYNARD CT NW,Evening Watch,26,BURGLARY-RESIDENCE,2202,Bankhead Courts,H,33.79289,-84.50058
590,90051399,2009-01-05,2009-01-05,0900,2009-01-05,1200.0,307.0,,,594 AMAL DR SW,Day Watch,26,BURGLARY-RESIDENCE,2202,Amal Heights,Y,33.70943,-84.39839
591,90051436,2009-01-05,2009-01-05,0615,2009-01-05,1830.0,414.0,,,2794 ALEXANDRIA DR SW,Evening Watch,20,BURGLARY-RESIDENCE,2202,Deerwood,P,33.67815,-84.51343
592,90051455,2009-01-05,2009-01-05,1800,2009-01-05,1806.0,409.0,,,1343 HIGH FALLS CT SW,Evening Watch,20,BURGLARY-RESIDENCE,2202,Cascade Heights,I,33.71814,-84.49431
593,90051462,2009-01-05,2009-01-05,1745,2009-01-05,1800.0,112.0,,D,317 SKIPPER PL NW,Evening Watch,20,BURGLARY-RESIDENCE,2202,Collier Heights,I,33.78085,-84.49051
594,90051532,2009-01-05,2009-01-05,0800,2009-01-05,2000.0,304.0,,,928 MARTIN ST SE,Evening Watch,20,BURGLARY-RESIDENCE,2202,Peoplestown,V,33.72915,-84.38303
595,90051546,2009-01-05,2009-01-05,0900,2009-01-05,1851.0,406.0,,,3201 WESTPORT WAY SW,Evening Watch,20,BURGLARY-RESIDENCE,2202,,I,33.74434,-84.49107999999998
596,90051651,2009-01-05,2009-01-02,0001,2009-01-02,300.0,104.0,,,966 FAIR ST SW,Evening Watch,20,BURGLARY-RESIDENCE,2202,Ashview Heights,T,33.74889,-84.41923
597,90051703,2009-01-05,2009-01-05,0800,2009-01-05,2000.0,302.0,,,864 MCDANIEL ST SW,Evening Watch,20,BURGLARY-RESIDENCE,2202,Pittsburgh,V,33.73137,-84.40146
598,90051704,2009-01-05,2009-01-05,1930,2009-01-05,1930.0,308.0,,58,1090 HENRY THOMAS DR SE,Evening Watch,26,BURGLARY-RESIDENCE,2202,Thomasville Heights,Z,33.70594,-84.35315
599,90051712,2009-01-05,2009-01-05,1900,2009-01-05,2100.0,303.0,,,264 ORMOND ST SW,Evening Watch,20,BURGLARY-RESIDENCE,2202,Mechanicsville,V,33.73167,-84.39674999999998
600,90051736,2009-01-05,2009-01-05,1000,2009-01-05,2035.0,304.0,,C,932 FERN AVE SE,Evening Watch,26,BURGLARY-RESIDENCE,2202,Peoplestown,V,33.72868,-84.38503
601,90051790,2009-01-05,2009-01-05,2135,2009-01-05,2138.0,103.0,,,2432 BRANTLEY ST NW,Evening Watch,20,BURGLARY-RESIDENCE,2202,Riverside,D,33.81089,-84.46765999999998
602,90050484,2009-01-05,2009-01-05,0830,2009-01-05,830.0,305.0,,,55 MCDONOUGH BLVD SE,Day Watch,35,AGG ASSAULT,1399,South Atlanta,Y,33.72024,-84.38653999999998
603,90050225,2009-01-05,2009-01-05,0438,2009-01-05,449.0,508.0,,102,123 LUCKIE ST NW,Morning Watch,24,BURGLARY-NONRES,2203,Downtown,M,33.75824,-84.39037999999998
604,90050440,2009-01-05,2009-01-02,1340,2009-01-05,800.0,209.0,,,3630 PEACHTREE RD NE,Morning Watch,6,BURGLARY-NONRES,2203,North Buckhead,B,33.85471,-84.35859999999998
605,90050451,2009-01-05,2009-01-04,2000,2009-01-05,800.0,106.0,,,1219 JOSEPH E BOONE BLVD NW,Day Watch,5,BURGLARY-NONRES,2203,Bankhead,K,33.76361,-84.42789999999998
606,90050638,2009-01-05,2009-01-02,1430,2009-01-05,900.0,209.0,,,3626 PEACHTREE RD NE,Morning Watch,18,BURGLARY-NONRES,2203,North Buckhead,B,33.8553,-84.35979
607,90050692,2009-01-05,2008-12-29,1200,2009-01-02,1200.0,408.0,,,1660 STANTON RD SW,Morning Watch,6,BURGLARY-NONRES,2203,,R,33.70953,-84.44239
608,90050720,2009-01-05,2008-01-02,1500,2009-01-05,1000.0,412.0,,,2032 SANDLAKE DR SW,Day Watch,20,BURGLARY-RESIDENCE,2204,,P,33.69953,-84.54159
609,90051285,2009-01-05,2009-01-05,0700,2009-01-05,1655.0,312.0,,,443 OAK DR SE,Evening Watch,20,BURGLARY-RESIDENCE,2204,Orchard Knob,Z,33.66712,-84.37905
610,90051375,2009-01-05,2009-01-04,0445,2009-01-04,600.0,302.0,,1301,765 MCDANIEL ST SW,Evening Watch,26,BURGLARY-RESIDENCE,2204,Pittsburgh,V,33.73396,-84.40177
611,90051453,2009-01-05,2009-01-05,0900,2009-01-05,1745.0,409.0,,,1551 BOULEVARD LORRAINE SW,Evening Watch,20,BURGLARY-RESIDENCE,2204,Adams Park,R,33.71385,-84.45989
612,90051596,2009-01-05,2009-01-05,0930,2009-01-05,1915.0,112.0,,,500 COLLIER RIDGE DR NW,Evening Watch,20,BURGLARY-RESIDENCE,2202A,Collier Heights,I,33.76873,-84.47732999999998
613,90051805,2009-01-05,2009-01-05,2156,2009-01-05,2156.0,409.0,,,2214 BOULEVARD GRANADA SW,Morning Watch,20,BURGLARY-RESIDENCE,2202A,Adams Park,R,33.71711,-84.46125999999998
614,90051823,2009-01-05,2009-01-05,0630,2009-01-05,2200.0,414.0,,,2795 ALEXANDRIA DR SW,Day Watch,20,BURGLARY-RESIDENCE,2202A,Deerwood,P,33.67818,-84.51403
615,90061205,2009-01-06,2009-01-06,1400,2009-01-06,1430.0,410.0,,443,1895 PLAZA LN SW,Evening Watch,26,BURGLARY-RESIDENCE,2204,Campbellton Road,R,33.70316,-84.45278999999998
616,90061439,2009-01-06,2009-01-06,0500,2009-01-06,1400.0,410.0,,E-2,1871 PLAZA LN SW,Evening Watch,26,BURGLARY-RESIDENCE,2204,Campbellton Road,R,33.70518,-84.45336
617,90062093,2009-01-06,2009-01-06,2150,2009-01-06,2200.0,104.0,,,1221 JASPER ST SW,Evening Watch,20,BURGLARY-RESIDENCE,2204,Mozley Park,K,33.75259,-84.42767
